[
    {
        "latitude": "60.181",
        "longitude": "25.021",
        "geo": "60.18, 25.02a",
        "city": "Vantaa",
        "province_icon": "",
        "province": "Uusimaa",
        "country_icon": "https://upload.wikimedia.org/wikipedia/commons/thumb/b/bc/Flag_of_Finland.svg/23px-Flag_of_Finland.svg.png",
        "country": "Finland",
        "is_valid": false
    },
    {
        "latitude": "33.311",
        "longitude": "36.181",
        "geo": "33.31, 36.18a",
        "city": "Damascus",
        "province_icon": "",
        "province": "",
        "country_icon": "https://upload.wikimedia.org/wikipedia/commons/thumb/5/53/Flag_of_Syria.svg/23px-Flag_of_Syria.svg.png",
        "country": "Syria",
        "is_valid": false
    },
    {
        "latitude": "27.201",
        "longitude": "88.371",
        "geo": "27.20, 88.37a",
        "city": "Gangtok",
        "province_icon": "",
        "province": "Sikkim",
        "country_icon": "https://upload.wikimedia.org/wikipedia/en/thumb/4/41/Flag_of_India.svg/23px-Flag_of_India.svg.png",
        "country": "India",
        "is_valid": false
    },
    {
        "latitude": "46.281",
        "longitude": "30.441",
        "geo": "46.28, 30.44a",
        "city": "Odessa",
        "province_icon": "https://upload.wikimedia.org/wikipedia/commons/thumb/b/ba/Flag_of_Odesa_Oblast.svg/23px-Flag_of_Odesa_Oblast.svg.png",
        "province": "Odessa Oblast",
        "country_icon": "https://upload.wikimedia.org/wikipedia/commons/thumb/4/49/Flag_of_Ukraine.svg/23px-Flag_of_Ukraine.svg.png",
        "country": "Ukraine",
        "is_valid": false
    },
    {
        "latitude": "13.051",
        "longitude": "80.161",
        "geo": "13.05, 80.16a",
        "city": "Chennai (Madras)",
        "province_icon": "",
        "province": "Tamil Nadu",
        "country_icon": "https://upload.wikimedia.org/wikipedia/en/thumb/4/41/Flag_of_India.svg/23px-Flag_of_India.svg.png",
        "country": "India",
        "is_valid": false
    },
    {
        "latitude": "62.541",
        "longitude": "27.411",
        "geo": "62.54, 27.41a",
        "city": "Kuopio",
        "province_icon": "",
        "province": "Northern Savonia",
        "country_icon": "https://upload.wikimedia.org/wikipedia/commons/thumb/b/bc/Flag_of_Finland.svg/23px-Flag_of_Finland.svg.png",
        "country": "Finland",
        "is_valid": false
    },
    {
        "latitude": "25.581",
        "longitude": "32.351",
        "geo": "25.58, 32.35a",
        "city": "Maputo",
        "province_icon": "",
        "province": "",
        "country_icon": "https://upload.wikimedia.org/wikipedia/commons/thumb/d/d0/Flag_of_Mozambique.svg/23px-Flag_of_Mozambique.svg.png",
        "country": "Mozambique",
        "is_valid": false
    },
    {
        "latitude": "52.131",
        "longitude": "6.541",
        "geo": "52.13, 6.54a",
        "city": "Enschede",
        "province_icon": "https://upload.wikimedia.org/wikipedia/commons/thumb/f/f8/Flag_of_Overijssel.svg/23px-Flag_of_Overijssel.svg.png",
        "province": "Overijssel",
        "country_icon": "https://upload.wikimedia.org/wikipedia/commons/thumb/2/20/Flag_of_the_Netherlands.svg/23px-Flag_of_the_Netherlands.svg.png",
        "country": "Netherlands",
        "is_valid": false
    },
    {
        "latitude": "43.171",
        "longitude": "76.541",
        "geo": "43.17, 76.54a",
        "city": "Almaty",
        "province_icon": "",
        "province": "",
        "country_icon": "https://upload.wikimedia.org/wikipedia/commons/thumb/d/d3/Flag_of_Kazakhstan.svg/23px-Flag_of_Kazakhstan.svg.png",
        "country": "Kazakhstan",
        "is_valid": false
    },
    {
        "latitude": "51.271",
        "longitude": "2.351",
        "geo": "51.27, 2.35a",
        "city": "Bristol",
        "province_icon": "https://upload.wikimedia.org/wikipedia/en/thumb/b/be/Flag_of_England.svg/23px-Flag_of_England.svg.png",
        "province": "England",
        "country_icon": "https://upload.wikimedia.org/wikipedia/en/thumb/a/ae/Flag_of_the_United_Kingdom.svg/23px-Flag_of_the_United_Kingdom.svg.png",
        "country": "United Kingdom",
        "is_valid": false
    },
    {
        "latitude": "4.031",
        "longitude": "39.401",
        "geo": "4.03, 39.40a",
        "city": "Mombasa",
        "province_icon": "",
        "province": "",
        "country_icon": "https://upload.wikimedia.org/wikipedia/commons/thumb/4/49/Flag_of_Kenya.svg/23px-Flag_of_Kenya.svg.png",
        "country": "Kenya",
        "is_valid": false
    },
    {
        "latitude": "18.061",
        "longitude": "15.571",
        "geo": "18.06, 15.57a",
        "city": "Nouakchott",
        "province_icon": "",
        "province": "",
        "country_icon": "https://upload.wikimedia.org/wikipedia/commons/thumb/4/43/Flag_of_Mauritania.svg/23px-Flag_of_Mauritania.svg.png",
        "country": "Mauritania",
        "is_valid": false
    },
    {
        "latitude": "27.221",
        "longitude": "70.201",
        "geo": "27.22, 70.20a",
        "city": "Copiapó",
        "province_icon": "",
        "province": "",
        "country_icon": "https://upload.wikimedia.org/wikipedia/commons/thumb/7/78/Flag_of_Chile.svg/23px-Flag_of_Chile.svg.png",
        "country": "Chile",
        "is_valid": false
    },
    {
        "latitude": "36.381",
        "longitude": "101.461",
        "geo": "36.38, 101.46a",
        "city": "Xining",
        "province_icon": "",
        "province": "Qinghai",
        "country_icon": "https://upload.wikimedia.org/wikipedia/commons/thumb/f/fa/Flag_of_the_People%27s_Republic_of_China.svg/23px-Flag_of_the_People%27s_Republic_of_China.svg.png",
        "country": "People's Republic of China",
        "is_valid": false
    },
    {
        "latitude": "41.091",
        "longitude": "71.181",
        "geo": "41.09, 71.18a",
        "city": "San Carlos de Bariloche",
        "province_icon": "https://upload.wikimedia.org/wikipedia/commons/thumb/5/5d/Bandera_de_la_Provincia_del_R%C3%ADo_Negro.svg/23px-Bandera_de_la_Provincia_del_R%C3%ADo_Negro.svg.png",
        "province": "Río Negro",
        "country_icon": "https://upload.wikimedia.org/wikipedia/commons/thumb/1/1a/Flag_of_Argentina.svg/23px-Flag_of_Argentina.svg.png",
        "country": "Argentina",
        "is_valid": false
    },
    {
        "latitude": "42.511",
        "longitude": "2.411",
        "geo": "42.51, 2.41a",
        "city": "Vitoria-Gasteiz",
        "province_icon": "https://upload.wikimedia.org/wikipedia/commons/thumb/2/2d/Flag_of_the_Basque_Country.svg/23px-Flag_of_the_Basque_Country.svg.png",
        "province": "Basque Country",
        "country_icon": "https://upload.wikimedia.org/wikipedia/en/thumb/9/9a/Flag_of_Spain.svg/23px-Flag_of_Spain.svg.png",
        "country": "Spain",
        "is_valid": false
    },
    {
        "latitude": "52.141",
        "longitude": "21.011",
        "geo": "52.14, 21.01a",
        "city": "Warsaw",
        "province_icon": "",
        "province": "Masovian Voivodship",
        "country_icon": "https://upload.wikimedia.org/wikipedia/en/thumb/1/12/Flag_of_Poland.svg/23px-Flag_of_Poland.svg.png",
        "country": "Poland",
        "is_valid": false
    },
    {
        "latitude": "35.361",
        "longitude": "140.061",
        "geo": "35.36, 140.06a",
        "city": "Chiba",
        "province_icon": "",
        "province": "Chiba",
        "country_icon": "https://upload.wikimedia.org/wikipedia/en/thumb/9/9e/Flag_of_Japan.svg/23px-Flag_of_Japan.svg.png",
        "country": "Japan",
        "is_valid": false
    },
    {
        "latitude": "6.191",
        "longitude": "10.481",
        "geo": "6.19, 10.48a",
        "city": "Monrovia",
        "province_icon": "",
        "province": "",
        "country_icon": "https://upload.wikimedia.org/wikipedia/commons/thumb/b/b8/Flag_of_Liberia.svg/23px-Flag_of_Liberia.svg.png",
        "country": "Liberia",
        "is_valid": false
    },
    {
        "latitude": "41.481",
        "longitude": "129.471",
        "geo": "41.48, 129.47a",
        "city": "Chongjin",
        "province_icon": "",
        "province": "",
        "country_icon": "https://upload.wikimedia.org/wikipedia/commons/thumb/5/51/Flag_of_North_Korea.svg/23px-Flag_of_North_Korea.svg.png",
        "country": "North Korea",
        "is_valid": false
    },
    {
        "latitude": "54.091",
        "longitude": "4.291",
        "geo": "54.09, 4.29a",
        "city": "Douglas",
        "province_icon": "https://upload.wikimedia.org/wikipedia/commons/thumb/b/bc/Flag_of_the_Isle_of_Man.svg/23px-Flag_of_the_Isle_of_Man.svg.png",
        "province": "Isle of Man",
        "country_icon": "https://upload.wikimedia.org/wikipedia/en/thumb/a/ae/Flag_of_the_United_Kingdom.svg/23px-Flag_of_the_United_Kingdom.svg.png",
        "country": "United Kingdom",
        "is_valid": false
    },
    {
        "latitude": "2.311",
        "longitude": "32.541",
        "geo": "2.31, 32.54a",
        "city": "Mwanza",
        "province_icon": "",
        "province": "",
        "country_icon": "https://upload.wikimedia.org/wikipedia/commons/thumb/3/38/Flag_of_Tanzania.svg/23px-Flag_of_Tanzania.svg.png",
        "country": "Tanzania",
        "is_valid": false
    },
    {
        "latitude": "33.141",
        "longitude": "131.361",
        "geo": "33.14, 131.36a",
        "city": "Ōita",
        "province_icon": "",
        "province": "Ōita",
        "country_icon": "https://upload.wikimedia.org/wikipedia/en/thumb/9/9e/Flag_of_Japan.svg/23px-Flag_of_Japan.svg.png",
        "country": "Japan",
        "is_valid": false
    },
    {
        "latitude": "38.331",
        "longitude": "121.281",
        "geo": "38.33, 121.28a",
        "city": "Sacramento",
        "province_icon": "https://upload.wikimedia.org/wikipedia/commons/thumb/0/01/Flag_of_California.svg/23px-Flag_of_California.svg.png",
        "province": "California",
        "country_icon": "https://upload.wikimedia.org/wikipedia/en/thumb/a/a4/Flag_of_the_United_States.svg/23px-Flag_of_the_United_States.svg.png",
        "country": "United States",
        "is_valid": false
    },
    {
        "latitude": "17.071",
        "longitude": "61.511",
        "geo": "17.07, 61.51a",
        "city": "St. John's",
        "province_icon": "",
        "province": "",
        "country_icon": "https://upload.wikimedia.org/wikipedia/commons/thumb/8/89/Flag_of_Antigua_and_Barbuda.svg/23px-Flag_of_Antigua_and_Barbuda.svg.png",
        "country": "Antigua and Barbuda",
        "is_valid": false
    },
    {
        "latitude": "40.131",
        "longitude": "74.461",
        "geo": "40.13, 74.46a",
        "city": "Trenton",
        "province_icon": "https://upload.wikimedia.org/wikipedia/commons/thumb/9/92/Flag_of_New_Jersey.svg/23px-Flag_of_New_Jersey.svg.png",
        "province": "New Jersey",
        "country_icon": "https://upload.wikimedia.org/wikipedia/en/thumb/a/a4/Flag_of_the_United_States.svg/23px-Flag_of_the_United_States.svg.png",
        "country": "United States",
        "is_valid": false
    },
    {
        "latitude": "44.191",
        "longitude": "69.471",
        "geo": "44.19, 69.47a",
        "city": "Augusta",
        "province_icon": "https://upload.wikimedia.org/wikipedia/commons/thumb/3/35/Flag_of_Maine.svg/23px-Flag_of_Maine.svg.png",
        "province": "Maine",
        "country_icon": "https://upload.wikimedia.org/wikipedia/en/thumb/a/a4/Flag_of_the_United_States.svg/23px-Flag_of_the_United_States.svg.png",
        "country": "United States",
        "is_valid": false
    },
    {
        "latitude": "9.581",
        "longitude": "67.491",
        "geo": "9.58, 67.49a",
        "city": "Rio Branco",
        "province_icon": "https://upload.wikimedia.org/wikipedia/commons/thumb/4/4c/Bandeira_do_Acre.svg/22px-Bandeira_do_Acre.svg.png",
        "province": "Acre",
        "country_icon": "https://upload.wikimedia.org/wikipedia/en/thumb/0/05/Flag_of_Brazil.svg/22px-Flag_of_Brazil.svg.png",
        "country": "Brazil",
        "is_valid": false
    },
    {
        "latitude": "25.23",
        "longitude": "68.22",
        "geo": "25.23, 68.22",
        "city": "Hyderabad",
        "province_icon": "",
        "province": "Sindh",
        "country_icon": "https://upload.wikimedia.org/wikipedia/commons/thumb/3/32/Flag_of_Pakistan.svg/23px-Flag_of_Pakistan.svg.png",
        "country": "Pakistan",
        "is_valid": false
    },
    {
        "latitude": "44.571",
        "longitude": "34.061",
        "geo": "44.57, 34.06a",
        "city": "Simferopol",
        "province_icon": "https://upload.wikimedia.org/wikipedia/commons/thumb/a/aa/Flag_of_Crimea.svg/23px-Flag_of_Crimea.svg.png",
        "province": "Crimea",
        "country_icon": "https://upload.wikimedia.org/wikipedia/commons/thumb/4/49/Flag_of_Ukraine.svg/23px-Flag_of_Ukraine.svg.png",
        "country": "Ukraine",
        "is_valid": false
    },
    {
        "latitude": "3.431",
        "longitude": "38.331",
        "geo": "3.43, 38.33a",
        "city": "Fortaleza",
        "province_icon": "https://upload.wikimedia.org/wikipedia/commons/thumb/2/2e/Bandeira_do_Cear%C3%A1.svg/22px-Bandeira_do_Cear%C3%A1.svg.png",
        "province": "Ceará",
        "country_icon": "https://upload.wikimedia.org/wikipedia/en/thumb/0/05/Flag_of_Brazil.svg/22px-Flag_of_Brazil.svg.png",
        "country": "Brazil",
        "is_valid": false
    },
    {
        "latitude": "14.011",
        "longitude": "60.591",
        "geo": "14.01, 60.59a",
        "city": "Castries",
        "province_icon": "",
        "province": "",
        "country_icon": "https://upload.wikimedia.org/wikipedia/commons/thumb/9/9f/Flag_of_Saint_Lucia.svg/23px-Flag_of_Saint_Lucia.svg.png",
        "country": "Saint Lucia",
        "is_valid": false
    },
    {
        "latitude": "43.301",
        "longitude": "16.261",
        "geo": "43.30, 16.26a",
        "city": "Split",
        "province_icon": "",
        "province": "",
        "country_icon": "https://upload.wikimedia.org/wikipedia/commons/thumb/1/1b/Flag_of_Croatia.svg/23px-Flag_of_Croatia.svg.png",
        "country": "Croatia",
        "is_valid": false
    },
    {
        "latitude": "15.481",
        "longitude": "47.521",
        "geo": "15.48, 47.52a",
        "city": "Brasília",
        "province_icon": "https://upload.wikimedia.org/wikipedia/commons/thumb/3/3c/Bandeira_do_Distrito_Federal_%28Brasil%29.svg/22px-Bandeira_do_Distrito_Federal_%28Brasil%29.svg.png",
        "province": "Distrito Federal",
        "country_icon": "https://upload.wikimedia.org/wikipedia/en/thumb/0/05/Flag_of_Brazil.svg/22px-Flag_of_Brazil.svg.png",
        "country": "Brazil",
        "is_valid": false
    },
    {
        "latitude": "52.29",
        "longitude": "1.54",
        "geo": "52.29, 1.54",
        "city": "Birmingham",
        "province_icon": "https://upload.wikimedia.org/wikipedia/en/thumb/b/be/Flag_of_England.svg/23px-Flag_of_England.svg.png",
        "province": "England",
        "country_icon": "https://upload.wikimedia.org/wikipedia/en/thumb/a/ae/Flag_of_the_United_Kingdom.svg/23px-Flag_of_the_United_Kingdom.svg.png",
        "country": "United Kingdom",
        "is_valid": false
    },
    {
        "latitude": "40.511",
        "longitude": "14.161",
        "geo": "40.51, 14.16a",
        "city": "Naples",
        "province_icon": "https://upload.wikimedia.org/wikipedia/commons/thumb/c/c5/Flag_of_Campania.svg/23px-Flag_of_Campania.svg.png",
        "province": "Campania",
        "country_icon": "https://upload.wikimedia.org/wikipedia/en/thumb/0/03/Flag_of_Italy.svg/23px-Flag_of_Italy.svg.png",
        "country": "Italy",
        "is_valid": false
    },
    {
        "latitude": "42.301",
        "longitude": "1.301",
        "geo": "42.30, 1.30a",
        "city": "Andorra la Vella",
        "province_icon": "",
        "province": "",
        "country_icon": "https://upload.wikimedia.org/wikipedia/commons/thumb/1/19/Flag_of_Andorra.svg/22px-Flag_of_Andorra.svg.png",
        "country": "Andorra",
        "is_valid": false
    },
    {
        "latitude": "54.431",
        "longitude": "20.311",
        "geo": "54.43, 20.31a",
        "city": "Kaliningrad",
        "province_icon": "",
        "province": "Kaliningrad Oblast",
        "country_icon": "https://upload.wikimedia.org/wikipedia/en/thumb/f/f3/Flag_of_Russia.svg/23px-Flag_of_Russia.svg.png",
        "country": "Russia",
        "is_valid": false
    },
    {
        "latitude": "53.231",
        "longitude": "1.281",
        "geo": "53.23, 1.28a",
        "city": "Sheffield",
        "province_icon": "https://upload.wikimedia.org/wikipedia/en/thumb/b/be/Flag_of_England.svg/23px-Flag_of_England.svg.png",
        "province": "England",
        "country_icon": "https://upload.wikimedia.org/wikipedia/en/thumb/a/ae/Flag_of_the_United_Kingdom.svg/23px-Flag_of_the_United_Kingdom.svg.png",
        "country": "United Kingdom",
        "is_valid": false
    },
    {
        "latitude": "63.171",
        "longitude": "18.441",
        "geo": "63.17, 18.44a",
        "city": "Örnsköldsvik",
        "province_icon": "",
        "province": "Ångermanland",
        "country_icon": "https://upload.wikimedia.org/wikipedia/en/thumb/4/4c/Flag_of_Sweden.svg/23px-Flag_of_Sweden.svg.png",
        "country": "Sweden",
        "is_valid": false
    },
    {
        "latitude": "53.121",
        "longitude": "50.081",
        "geo": "53.12, 50.08a",
        "city": "Samara",
        "province_icon": "",
        "province": "Samara Oblast",
        "country_icon": "https://upload.wikimedia.org/wikipedia/en/thumb/f/f3/Flag_of_Russia.svg/23px-Flag_of_Russia.svg.png",
        "country": "Russia",
        "is_valid": false
    },
    {
        "latitude": "37.581",
        "longitude": "23.431",
        "geo": "37.58, 23.43a",
        "city": "Athens",
        "province_icon": "",
        "province": "",
        "country_icon": "https://upload.wikimedia.org/wikipedia/commons/thumb/5/5c/Flag_of_Greece.svg/23px-Flag_of_Greece.svg.png",
        "country": "Greece",
        "is_valid": false
    },
    {
        "latitude": "52.121",
        "longitude": "0.071",
        "geo": "52.12, 0.07a",
        "city": "Cambridge",
        "province_icon": "https://upload.wikimedia.org/wikipedia/en/thumb/b/be/Flag_of_England.svg/23px-Flag_of_England.svg.png",
        "province": "England",
        "country_icon": "https://upload.wikimedia.org/wikipedia/en/thumb/a/ae/Flag_of_the_United_Kingdom.svg/23px-Flag_of_the_United_Kingdom.svg.png",
        "country": "United Kingdom",
        "is_valid": false
    },
    {
        "latitude": "6.551",
        "longitude": "107.371",
        "geo": "6.55, 107.37a",
        "city": "Bandung",
        "province_icon": "",
        "province": "West Java",
        "country_icon": "https://upload.wikimedia.org/wikipedia/commons/thumb/9/9f/Flag_of_Indonesia.svg/23px-Flag_of_Indonesia.svg.png",
        "country": "Indonesia",
        "is_valid": false
    },
    {
        "latitude": "47.221",
        "longitude": "8.331",
        "geo": "47.22, 8.33a",
        "city": "Zürich",
        "province_icon": "",
        "province": "",
        "country_icon": "https://upload.wikimedia.org/wikipedia/commons/thumb/f/f3/Flag_of_Switzerland.svg/16px-Flag_of_Switzerland.svg.png",
        "country": "Switzerland",
        "is_valid": false
    },
    {
        "latitude": "36.101",
        "longitude": "86.471",
        "geo": "36.10, 86.47a",
        "city": "Nashville",
        "province_icon": "https://upload.wikimedia.org/wikipedia/commons/thumb/9/9e/Flag_of_Tennessee.svg/23px-Flag_of_Tennessee.svg.png",
        "province": "Tennessee",
        "country_icon": "https://upload.wikimedia.org/wikipedia/en/thumb/a/a4/Flag_of_the_United_States.svg/23px-Flag_of_the_United_States.svg.png",
        "country": "United States",
        "is_valid": false
    },
    {
        "latitude": "12.311",
        "longitude": "70.021",
        "geo": "12.31, 70.02a",
        "city": "Oranjestad",
        "province_icon": "https://upload.wikimedia.org/wikipedia/commons/thumb/f/f6/Flag_of_Aruba.svg/23px-Flag_of_Aruba.svg.png",
        "province": "Aruba",
        "country_icon": "https://upload.wikimedia.org/wikipedia/commons/thumb/2/20/Flag_of_the_Netherlands.svg/23px-Flag_of_the_Netherlands.svg.png",
        "country": "Netherlands",
        "is_valid": false
    },
    {
        "latitude": "52.381",
        "longitude": "1.181",
        "geo": "52.38, 1.18a",
        "city": "Norwich",
        "province_icon": "https://upload.wikimedia.org/wikipedia/en/thumb/b/be/Flag_of_England.svg/23px-Flag_of_England.svg.png",
        "province": "England",
        "country_icon": "https://upload.wikimedia.org/wikipedia/en/thumb/a/ae/Flag_of_the_United_Kingdom.svg/23px-Flag_of_the_United_Kingdom.svg.png",
        "country": "United Kingdom",
        "is_valid": false
    },
    {
        "latitude": "27.421",
        "longitude": "85.201",
        "geo": "27.42, 85.20a",
        "city": "Kathmandu",
        "province_icon": "",
        "province": "",
        "country_icon": "https://upload.wikimedia.org/wikipedia/commons/thumb/9/9b/Flag_of_Nepal.svg/16px-Flag_of_Nepal.svg.png",
        "country": "Nepal",
        "is_valid": false
    },
    {
        "latitude": "38.211",
        "longitude": "81.381",
        "geo": "38.21, 81.38a",
        "city": "Charleston",
        "province_icon": "https://upload.wikimedia.org/wikipedia/commons/thumb/2/22/Flag_of_West_Virginia.svg/23px-Flag_of_West_Virginia.svg.png",
        "province": "West Virginia",
        "country_icon": "https://upload.wikimedia.org/wikipedia/en/thumb/a/a4/Flag_of_the_United_States.svg/23px-Flag_of_the_United_States.svg.png",
        "country": "United States",
        "is_valid": false
    },
    {
        "latitude": "19.18",
        "longitude": "81.23",
        "geo": "19.18, 81.23",
        "city": "George Town",
        "province_icon": "https://upload.wikimedia.org/wikipedia/commons/thumb/0/0f/Flag_of_the_Cayman_Islands.svg/23px-Flag_of_the_Cayman_Islands.svg.png",
        "province": "Cayman Islands",
        "country_icon": "https://upload.wikimedia.org/wikipedia/en/thumb/a/ae/Flag_of_the_United_Kingdom.svg/23px-Flag_of_the_United_Kingdom.svg.png",
        "country": "United Kingdom",
        "is_valid": false
    },
    {
        "latitude": "2.321",
        "longitude": "44.181",
        "geo": "2.32, 44.18a",
        "city": "São Luís",
        "province_icon": "https://upload.wikimedia.org/wikipedia/commons/thumb/4/45/Bandeira_do_Maranh%C3%A3o.svg/23px-Bandeira_do_Maranh%C3%A3o.svg.png",
        "province": "Maranhão",
        "country_icon": "https://upload.wikimedia.org/wikipedia/en/thumb/0/05/Flag_of_Brazil.svg/22px-Flag_of_Brazil.svg.png",
        "country": "Brazil",
        "is_valid": false
    },
    {
        "latitude": "64.081",
        "longitude": "21.561",
        "geo": "64.08, 21.56a",
        "city": "Reykjavík",
        "province_icon": "",
        "province": "Capital Region",
        "country_icon": "https://upload.wikimedia.org/wikipedia/commons/thumb/c/ce/Flag_of_Iceland.svg/21px-Flag_of_Iceland.svg.png",
        "country": "Iceland",
        "is_valid": false
    },
    {
        "latitude": "27.291",
        "longitude": "95.001",
        "geo": "27.29, 95.00a",
        "city": "Dibrugarh",
        "province_icon": "",
        "province": "Assam",
        "country_icon": "https://upload.wikimedia.org/wikipedia/en/thumb/4/41/Flag_of_India.svg/23px-Flag_of_India.svg.png",
        "country": "India",
        "is_valid": false
    },
    {
        "latitude": "26.111",
        "longitude": "91.441",
        "geo": "26.11, 91.44a",
        "city": "Guwahati",
        "province_icon": "",
        "province": "Assam",
        "country_icon": "https://upload.wikimedia.org/wikipedia/en/thumb/4/41/Flag_of_India.svg/23px-Flag_of_India.svg.png",
        "country": "India",
        "is_valid": false
    },
    {
        "latitude": "35.311",
        "longitude": "35.471",
        "geo": "35.31, 35.47a",
        "city": "Latakia",
        "province_icon": "",
        "province": "",
        "country_icon": "https://upload.wikimedia.org/wikipedia/commons/thumb/5/53/Flag_of_Syria.svg/23px-Flag_of_Syria.svg.png",
        "country": "Syria",
        "is_valid": false
    },
    {
        "latitude": "43.351",
        "longitude": "39.431",
        "geo": "43.35, 39.43a",
        "city": "Sochi",
        "province_icon": "",
        "province": "Krasnodar Krai",
        "country_icon": "https://upload.wikimedia.org/wikipedia/en/thumb/f/f3/Flag_of_Russia.svg/23px-Flag_of_Russia.svg.png",
        "country": "Russia",
        "is_valid": false
    },
    {
        "latitude": "59.571",
        "longitude": "30.181",
        "geo": "59.57, 30.18a",
        "city": "Saint Petersburg",
        "province_icon": "",
        "province": "",
        "country_icon": "https://upload.wikimedia.org/wikipedia/en/thumb/f/f3/Flag_of_Russia.svg/23px-Flag_of_Russia.svg.png",
        "country": "Russia",
        "is_valid": false
    },
    {
        "latitude": "46.49",
        "longitude": "100.47",
        "geo": "46.49, 100.47",
        "city": "Bismarck",
        "province_icon": "",
        "province": "",
        "country_icon": "https://upload.wikimedia.org/wikipedia/en/thumb/a/a4/Flag_of_the_United_States.svg/23px-Flag_of_the_United_States.svg.png",
        "country": "United States",
        "is_valid": false
    },
    {
        "latitude": "0.201",
        "longitude": "6.411",
        "geo": "0.20, 6.41a",
        "city": "São Tomé",
        "province_icon": "",
        "province": "",
        "country_icon": "https://upload.wikimedia.org/wikipedia/commons/thumb/4/4f/Flag_of_Sao_Tome_and_Principe.svg/23px-Flag_of_Sao_Tome_and_Principe.svg.png",
        "country": "São Tomé and Príncipe",
        "is_valid": false
    },
    {
        "latitude": "21.471",
        "longitude": "46.341",
        "geo": "21.47, 46.34a",
        "city": "Poços de Caldas",
        "province_icon": "https://upload.wikimedia.org/wikipedia/commons/thumb/f/f4/Bandeira_de_Minas_Gerais.svg/22px-Bandeira_de_Minas_Gerais.svg.png",
        "province": "Minas Gerais",
        "country_icon": "https://upload.wikimedia.org/wikipedia/en/thumb/0/05/Flag_of_Brazil.svg/22px-Flag_of_Brazil.svg.png",
        "country": "Brazil",
        "is_valid": false
    },
    {
        "latitude": "16.401",
        "longitude": "49.151",
        "geo": "16.40, 49.15a",
        "city": "Goiânia",
        "province_icon": "https://upload.wikimedia.org/wikipedia/commons/thumb/0/0e/Bandeira_de_Goi%C3%A1s.svg/22px-Bandeira_de_Goi%C3%A1s.svg.png",
        "province": "Goiás",
        "country_icon": "https://upload.wikimedia.org/wikipedia/en/thumb/0/05/Flag_of_Brazil.svg/22px-Flag_of_Brazil.svg.png",
        "country": "Brazil",
        "is_valid": false
    },
    {
        "latitude": "14.361",
        "longitude": "61.051",
        "geo": "14.36, 61.05a",
        "city": "Fort-de-France",
        "province_icon": "",
        "province": "Martinique",
        "country_icon": "https://upload.wikimedia.org/wikipedia/en/thumb/c/c3/Flag_of_France.svg/23px-Flag_of_France.svg.png",
        "country": "France",
        "is_valid": false
    },
    {
        "latitude": "1.271",
        "longitude": "48.301",
        "geo": "1.27, 48.30a",
        "city": "Belém",
        "province_icon": "https://upload.wikimedia.org/wikipedia/commons/thumb/0/02/Bandeira_do_Par%C3%A1.svg/23px-Bandeira_do_Par%C3%A1.svg.png",
        "province": "Pará",
        "country_icon": "https://upload.wikimedia.org/wikipedia/en/thumb/0/05/Flag_of_Brazil.svg/22px-Flag_of_Brazil.svg.png",
        "country": "Brazil",
        "is_valid": false
    },
    {
        "latitude": "39.28",
        "longitude": "0.23",
        "geo": "39.28, 0.23",
        "city": "Valencia",
        "province_icon": "https://upload.wikimedia.org/wikipedia/commons/thumb/1/16/Flag_of_the_Valencian_Community_%282x3%29.svg/23px-Flag_of_the_Valencian_Community_%282x3%29.svg.png",
        "province": "Valencian Community",
        "country_icon": "https://upload.wikimedia.org/wikipedia/en/thumb/9/9a/Flag_of_Spain.svg/23px-Flag_of_Spain.svg.png",
        "country": "Spain",
        "is_valid": false
    },
    {
        "latitude": "52.381",
        "longitude": "1.081",
        "geo": "52.38, 1.08a",
        "city": "Leicester",
        "province_icon": "https://upload.wikimedia.org/wikipedia/en/thumb/b/be/Flag_of_England.svg/23px-Flag_of_England.svg.png",
        "province": "England",
        "country_icon": "https://upload.wikimedia.org/wikipedia/en/thumb/a/ae/Flag_of_the_United_Kingdom.svg/23px-Flag_of_the_United_Kingdom.svg.png",
        "country": "United Kingdom",
        "is_valid": false
    },
    {
        "latitude": "24.521",
        "longitude": "67.011",
        "geo": "24.52, 67.01a",
        "city": "Karachi",
        "province_icon": "",
        "province": "Sindh",
        "country_icon": "https://upload.wikimedia.org/wikipedia/commons/thumb/3/32/Flag_of_Pakistan.svg/23px-Flag_of_Pakistan.svg.png",
        "country": "Pakistan",
        "is_valid": false
    },
    {
        "latitude": "43.501",
        "longitude": "87.361",
        "geo": "43.50, 87.36a",
        "city": "Ürümqi",
        "province_icon": "",
        "province": "Xinjiang",
        "country_icon": "https://upload.wikimedia.org/wikipedia/commons/thumb/f/fa/Flag_of_the_People%27s_Republic_of_China.svg/23px-Flag_of_the_People%27s_Republic_of_China.svg.png",
        "country": "People's Republic of China",
        "is_valid": false
    },
    {
        "latitude": "5.251",
        "longitude": "100.191",
        "geo": "5.25, 100.19a",
        "city": "George Town",
        "province_icon": "https://upload.wikimedia.org/wikipedia/commons/thumb/d/d4/Flag_of_Penang_%28Malaysia%29.svg/23px-Flag_of_Penang_%28Malaysia%29.svg.png",
        "province": "Penang",
        "country_icon": "https://upload.wikimedia.org/wikipedia/commons/thumb/6/66/Flag_of_Malaysia.svg/23px-Flag_of_Malaysia.svg.png",
        "country": "Malaysia",
        "is_valid": false
    },
    {
        "latitude": "20.481",
        "longitude": "49.231",
        "geo": "20.48, 49.23a",
        "city": "São José do Rio Preto",
        "province_icon": "https://upload.wikimedia.org/wikipedia/commons/thumb/2/2b/Bandeira_do_estado_de_S%C3%A3o_Paulo.svg/23px-Bandeira_do_estado_de_S%C3%A3o_Paulo.svg.png",
        "province": "São Paulo",
        "country_icon": "https://upload.wikimedia.org/wikipedia/en/thumb/0/05/Flag_of_Brazil.svg/22px-Flag_of_Brazil.svg.png",
        "country": "Brazil",
        "is_valid": false
    },
    {
        "latitude": "0.031",
        "longitude": "18.151",
        "geo": "0.03, 18.15a",
        "city": "Mbandaka",
        "province_icon": "",
        "province": "Équateur",
        "country_icon": "https://upload.wikimedia.org/wikipedia/commons/thumb/6/6f/Flag_of_the_Democratic_Republic_of_the_Congo.svg/20px-Flag_of_the_Democratic_Republic_of_the_Congo.svg.png",
        "country": "Democratic Republic of the Congo",
        "is_valid": false
    },
    {
        "latitude": "53.341",
        "longitude": "10.001",
        "geo": "53.34, 10.00a",
        "city": "Hamburg",
        "province_icon": "https://upload.wikimedia.org/wikipedia/commons/thumb/7/74/Flag_of_Hamburg.svg/23px-Flag_of_Hamburg.svg.png",
        "province": "Hamburg",
        "country_icon": "https://upload.wikimedia.org/wikipedia/en/thumb/b/ba/Flag_of_Germany.svg/23px-Flag_of_Germany.svg.png",
        "country": "Germany",
        "is_valid": false
    },
    {
        "latitude": "43.421",
        "longitude": "7.161",
        "geo": "43.42, 7.16a",
        "city": "Nice",
        "province_icon": "https://upload.wikimedia.org/wikipedia/commons/thumb/5/58/Flag_of_Provence-Alpes-Cote_dAzur.svg/23px-Flag_of_Provence-Alpes-Cote_dAzur.svg.png",
        "province": "Provence-Alpes-Côte d'Azur",
        "country_icon": "https://upload.wikimedia.org/wikipedia/en/thumb/c/c3/Flag_of_France.svg/23px-Flag_of_France.svg.png",
        "country": "France",
        "is_valid": false
    },
    {
        "latitude": "56.011",
        "longitude": "93.041",
        "geo": "56.01, 93.04a",
        "city": "Krasnoyarsk",
        "province_icon": "",
        "province": "Krasnoyarsk Krai",
        "country_icon": "https://upload.wikimedia.org/wikipedia/en/thumb/f/f3/Flag_of_Russia.svg/23px-Flag_of_Russia.svg.png",
        "country": "Russia",
        "is_valid": false
    },
    {
        "latitude": "25.041",
        "longitude": "77.201",
        "geo": "25.04, 77.20a",
        "city": "Nassau",
        "province_icon": "",
        "province": "",
        "country_icon": "https://upload.wikimedia.org/wikipedia/commons/thumb/9/93/Flag_of_the_Bahamas.svg/23px-Flag_of_the_Bahamas.svg.png",
        "country": "Bahamas",
        "is_valid": false
    },
    {
        "latitude": "19.031",
        "longitude": "169.551",
        "geo": "19.03, 169.55a",
        "city": "Alofi",
        "province_icon": "https://upload.wikimedia.org/wikipedia/commons/thumb/0/01/Flag_of_Niue.svg/23px-Flag_of_Niue.svg.png",
        "province": "Niue",
        "country_icon": "https://upload.wikimedia.org/wikipedia/commons/thumb/3/3e/Flag_of_New_Zealand.svg/23px-Flag_of_New_Zealand.svg.png",
        "country": "New Zealand",
        "is_valid": false
    },
    {
        "latitude": "3.401",
        "longitude": "40.141",
        "geo": "3.40, 40.14a",
        "city": "Sobral",
        "province_icon": "https://upload.wikimedia.org/wikipedia/commons/thumb/2/2e/Bandeira_do_Cear%C3%A1.svg/22px-Bandeira_do_Cear%C3%A1.svg.png",
        "province": "Ceará",
        "country_icon": "https://upload.wikimedia.org/wikipedia/en/thumb/0/05/Flag_of_Brazil.svg/22px-Flag_of_Brazil.svg.png",
        "country": "Brazil",
        "is_valid": false
    },
    {
        "latitude": "19.421",
        "longitude": "155.051",
        "geo": "19.42, 155.05a",
        "city": "Hilo",
        "province_icon": "https://upload.wikimedia.org/wikipedia/commons/thumb/e/ef/Flag_of_Hawaii.svg/23px-Flag_of_Hawaii.svg.png",
        "province": "Hawaii",
        "country_icon": "https://upload.wikimedia.org/wikipedia/en/thumb/a/a4/Flag_of_the_United_States.svg/23px-Flag_of_the_United_States.svg.png",
        "country": "United States",
        "is_valid": false
    },
    {
        "latitude": "17.151",
        "longitude": "88.461",
        "geo": "17.15, 88.46a",
        "city": "Belmopan",
        "province_icon": "",
        "province": "",
        "country_icon": "https://upload.wikimedia.org/wikipedia/commons/thumb/e/e7/Flag_of_Belize.svg/23px-Flag_of_Belize.svg.png",
        "country": "Belize",
        "is_valid": false
    },
    {
        "latitude": "13.171",
        "longitude": "176.111",
        "geo": "13.17, 176.11a",
        "city": "Mata-Utu",
        "province_icon": "",
        "province": "Wallis and Futuna",
        "country_icon": "https://upload.wikimedia.org/wikipedia/en/thumb/c/c3/Flag_of_France.svg/23px-Flag_of_France.svg.png",
        "country": "France",
        "is_valid": false
    },
    {
        "latitude": "7.121",
        "longitude": "39.201",
        "geo": "7.12, 39.20a",
        "city": "Juazeiro do Norte",
        "province_icon": "https://upload.wikimedia.org/wikipedia/commons/thumb/2/2e/Bandeira_do_Cear%C3%A1.svg/22px-Bandeira_do_Cear%C3%A1.svg.png",
        "province": "Ceará",
        "country_icon": "https://upload.wikimedia.org/wikipedia/en/thumb/0/05/Flag_of_Brazil.svg/22px-Flag_of_Brazil.svg.png",
        "country": "Brazil",
        "is_valid": false
    },
    {
        "latitude": "33.451",
        "longitude": "84.231",
        "geo": "33.45, 84.23a",
        "city": "Atlanta",
        "province_icon": "https://upload.wikimedia.org/wikipedia/commons/thumb/5/54/Flag_of_Georgia_%28U.S._state%29.svg/23px-Flag_of_Georgia_%28U.S._state%29.svg.png",
        "province": "Georgia",
        "country_icon": "https://upload.wikimedia.org/wikipedia/en/thumb/a/a4/Flag_of_the_United_States.svg/23px-Flag_of_the_United_States.svg.png",
        "country": "United States",
        "is_valid": false
    },
    {
        "latitude": "44.261",
        "longitude": "26.061",
        "geo": "44.26, 26.06a",
        "city": "Bucharest",
        "province_icon": "",
        "province": "",
        "country_icon": "https://upload.wikimedia.org/wikipedia/commons/thumb/7/73/Flag_of_Romania.svg/23px-Flag_of_Romania.svg.png",
        "country": "Romania",
        "is_valid": false
    },
    {
        "latitude": "63.061",
        "longitude": "21.371",
        "geo": "63.06, 21.37a",
        "city": "Vaasa",
        "province_icon": "",
        "province": "Ostrobothnia",
        "country_icon": "https://upload.wikimedia.org/wikipedia/commons/thumb/b/bc/Flag_of_Finland.svg/23px-Flag_of_Finland.svg.png",
        "country": "Finland",
        "is_valid": false
    },
    {
        "latitude": "48.351",
        "longitude": "7.451",
        "geo": "48.35, 7.45a",
        "city": "Strasbourg",
        "province_icon": "https://upload.wikimedia.org/wikipedia/commons/thumb/c/c7/Flag_of_Alsace.svg/23px-Flag_of_Alsace.svg.png",
        "province": "Alsace",
        "country_icon": "https://upload.wikimedia.org/wikipedia/en/thumb/c/c3/Flag_of_France.svg/23px-Flag_of_France.svg.png",
        "country": "France",
        "is_valid": false
    },
    {
        "latitude": "58.001",
        "longitude": "56.191",
        "geo": "58.00, 56.19a",
        "city": "Perm",
        "province_icon": "",
        "province": "Perm Krai",
        "country_icon": "https://upload.wikimedia.org/wikipedia/en/thumb/f/f3/Flag_of_Russia.svg/23px-Flag_of_Russia.svg.png",
        "country": "Russia",
        "is_valid": false
    },
    {
        "latitude": "21.081",
        "longitude": "79.051",
        "geo": "21.08, 79.05a",
        "city": "Nagpur",
        "province_icon": "",
        "province": "Maharashtra",
        "country_icon": "https://upload.wikimedia.org/wikipedia/en/thumb/4/41/Flag_of_India.svg/23px-Flag_of_India.svg.png",
        "country": "India",
        "is_valid": false
    },
    {
        "latitude": "38.591",
        "longitude": "1.261",
        "geo": "38.59, 1.26a",
        "city": "Ibiza",
        "province_icon": "https://upload.wikimedia.org/wikipedia/commons/thumb/7/7b/Flag_of_the_Balearic_Islands.svg/23px-Flag_of_the_Balearic_Islands.svg.png",
        "province": "Balearic Islands",
        "country_icon": "https://upload.wikimedia.org/wikipedia/en/thumb/9/9a/Flag_of_Spain.svg/23px-Flag_of_Spain.svg.png",
        "country": "Spain",
        "is_valid": false
    },
    {
        "latitude": "24.281",
        "longitude": "39.361",
        "geo": "24.28, 39.36a",
        "city": "Medina",
        "province_icon": "",
        "province": "",
        "country_icon": "https://upload.wikimedia.org/wikipedia/commons/thumb/0/0d/Flag_of_Saudi_Arabia.svg/23px-Flag_of_Saudi_Arabia.svg.png",
        "country": "Saudi Arabia",
        "is_valid": false
    },
    {
        "latitude": "17.181",
        "longitude": "62.441",
        "geo": "17.18, 62.44a",
        "city": "Basseterre",
        "province_icon": "",
        "province": "",
        "country_icon": "https://upload.wikimedia.org/wikipedia/commons/thumb/f/fe/Flag_of_Saint_Kitts_and_Nevis.svg/23px-Flag_of_Saint_Kitts_and_Nevis.svg.png",
        "country": "Saint Kitts and Nevis",
        "is_valid": false
    },
    {
        "latitude": "32.431",
        "longitude": "117.101",
        "geo": "32.43, 117.10a",
        "city": "San Diego",
        "province_icon": "https://upload.wikimedia.org/wikipedia/commons/thumb/0/01/Flag_of_California.svg/23px-Flag_of_California.svg.png",
        "province": "California",
        "country_icon": "https://upload.wikimedia.org/wikipedia/en/thumb/a/a4/Flag_of_the_United_States.svg/23px-Flag_of_the_United_States.svg.png",
        "country": "United States",
        "is_valid": false
    },
    {
        "latitude": "54.451",
        "longitude": "55.581",
        "geo": "54.45, 55.58a",
        "city": "Ufa",
        "province_icon": "",
        "province": "Republic of Bashkortostan",
        "country_icon": "https://upload.wikimedia.org/wikipedia/en/thumb/f/f3/Flag_of_Russia.svg/23px-Flag_of_Russia.svg.png",
        "country": "Russia",
        "is_valid": false
    },
    {
        "latitude": "41.231",
        "longitude": "2.111",
        "geo": "41.23, 2.11a",
        "city": "Barcelona",
        "province_icon": "https://upload.wikimedia.org/wikipedia/commons/thumb/c/ce/Flag_of_Catalonia.svg/23px-Flag_of_Catalonia.svg.png",
        "province": "Catalonia",
        "country_icon": "https://upload.wikimedia.org/wikipedia/en/thumb/9/9a/Flag_of_Spain.svg/23px-Flag_of_Spain.svg.png",
        "country": "Spain",
        "is_valid": false
    },
    {
        "latitude": "42.421",
        "longitude": "23.201",
        "geo": "42.42, 23.20a",
        "city": "Sofia",
        "province_icon": "",
        "province": "",
        "country_icon": "https://upload.wikimedia.org/wikipedia/commons/thumb/9/9a/Flag_of_Bulgaria.svg/23px-Flag_of_Bulgaria.svg.png",
        "country": "Bulgaria",
        "is_valid": false
    },
    {
        "latitude": "52.231",
        "longitude": "4.381",
        "geo": "52.23, 4.38a",
        "city": "Haarlem",
        "province_icon": "https://upload.wikimedia.org/wikipedia/commons/thumb/f/f5/Flag_North-Holland%2C_Netherlands.svg/23px-Flag_North-Holland%2C_Netherlands.svg.png",
        "province": "North Holland",
        "country_icon": "https://upload.wikimedia.org/wikipedia/commons/thumb/2/20/Flag_of_the_Netherlands.svg/23px-Flag_of_the_Netherlands.svg.png",
        "country": "Netherlands",
        "is_valid": false
    },
    {
        "latitude": "19.151",
        "longitude": "146.491",
        "geo": "19.15, 146.49a",
        "city": "Townsville",
        "province_icon": "https://upload.wikimedia.org/wikipedia/commons/thumb/0/04/Flag_of_Queensland.svg/23px-Flag_of_Queensland.svg.png",
        "province": "Queensland",
        "country_icon": "https://upload.wikimedia.org/wikipedia/en/thumb/b/b9/Flag_of_Australia.svg/23px-Flag_of_Australia.svg.png",
        "country": "Australia",
        "is_valid": false
    },
    {
        "latitude": "10.431",
        "longitude": "122.341",
        "geo": "10.43, 122.34a",
        "city": "Iloilo City",
        "province_icon": "",
        "province": "Iloilo",
        "country_icon": "https://upload.wikimedia.org/wikipedia/commons/thumb/9/99/Flag_of_the_Philippines.svg/23px-Flag_of_the_Philippines.svg.png",
        "country": "Philippines",
        "is_valid": false
    },
    {
        "latitude": "36.021",
        "longitude": "103.481",
        "geo": "36.02, 103.48a",
        "city": "Lanzhou",
        "province_icon": "",
        "province": "Gansu",
        "country_icon": "https://upload.wikimedia.org/wikipedia/commons/thumb/f/fa/Flag_of_the_People%27s_Republic_of_China.svg/23px-Flag_of_the_People%27s_Republic_of_China.svg.png",
        "country": "People's Republic of China",
        "is_valid": false
    },
    {
        "latitude": "43.031",
        "longitude": "87.571",
        "geo": "43.03, 87.57a",
        "city": "Milwaukee",
        "province_icon": "https://upload.wikimedia.org/wikipedia/commons/thumb/2/22/Flag_of_Wisconsin.svg/23px-Flag_of_Wisconsin.svg.png",
        "province": "Wisconsin",
        "country_icon": "https://upload.wikimedia.org/wikipedia/en/thumb/a/a4/Flag_of_the_United_States.svg/23px-Flag_of_the_United_States.svg.png",
        "country": "United States",
        "is_valid": false
    },
    {
        "latitude": "6.481",
        "longitude": "58.101",
        "geo": "6.48, 58.10a",
        "city": "Georgetown",
        "province_icon": "",
        "province": "",
        "country_icon": "https://upload.wikimedia.org/wikipedia/commons/thumb/9/99/Flag_of_Guyana.svg/23px-Flag_of_Guyana.svg.png",
        "country": "Guyana",
        "is_valid": false
    },
    {
        "latitude": "55.291",
        "longitude": "8.271",
        "geo": "55.29, 8.27a",
        "city": "Esbjerg",
        "province_icon": "",
        "province": "",
        "country_icon": "https://upload.wikimedia.org/wikipedia/commons/thumb/9/9c/Flag_of_Denmark.svg/20px-Flag_of_Denmark.svg.png",
        "country": "Denmark",
        "is_valid": false
    },
    {
        "latitude": "37.581",
        "longitude": "126.331",
        "geo": "37.58, 126.33a",
        "city": "Kaesong",
        "province_icon": "",
        "province": "",
        "country_icon": "https://upload.wikimedia.org/wikipedia/commons/thumb/5/51/Flag_of_North_Korea.svg/23px-Flag_of_North_Korea.svg.png",
        "country": "North Korea",
        "is_valid": false
    },
    {
        "latitude": "47.481",
        "longitude": "13.021",
        "geo": "47.48, 13.02a",
        "city": "Salzburg",
        "province_icon": "https://upload.wikimedia.org/wikipedia/commons/thumb/1/1a/Flag_of_Salzburg.svg/23px-Flag_of_Salzburg.svg.png",
        "province": "Salzburg",
        "country_icon": "https://upload.wikimedia.org/wikipedia/commons/thumb/4/41/Flag_of_Austria.svg/23px-Flag_of_Austria.svg.png",
        "country": "Austria",
        "is_valid": false
    },
    {
        "latitude": "56.441",
        "longitude": "111.231",
        "geo": "56.44, 111.23a",
        "city": "Fort McMurray",
        "province_icon": "https://upload.wikimedia.org/wikipedia/commons/thumb/f/f5/Flag_of_Alberta.svg/23px-Flag_of_Alberta.svg.png",
        "province": "Alberta",
        "country_icon": "https://upload.wikimedia.org/wikipedia/en/thumb/c/cf/Flag_of_Canada.svg/23px-Flag_of_Canada.svg.png",
        "country": "Canada",
        "is_valid": false
    },
    {
        "latitude": "34.111",
        "longitude": "131.281",
        "geo": "34.11, 131.28a",
        "city": "Yamaguchi",
        "province_icon": "",
        "province": "Yamaguchi",
        "country_icon": "https://upload.wikimedia.org/wikipedia/en/thumb/9/9e/Flag_of_Japan.svg/23px-Flag_of_Japan.svg.png",
        "country": "Japan",
        "is_valid": false
    },
    {
        "latitude": "4.361",
        "longitude": "74.051",
        "geo": "4.36, 74.05a",
        "city": "Bogotá",
        "province_icon": "",
        "province": "",
        "country_icon": "https://upload.wikimedia.org/wikipedia/commons/thumb/2/21/Flag_of_Colombia.svg/23px-Flag_of_Colombia.svg.png",
        "country": "Colombia",
        "is_valid": false
    },
    {
        "latitude": "15.381",
        "longitude": "32.321",
        "geo": "15.38, 32.32a",
        "city": "Khartoum",
        "province_icon": "",
        "province": "",
        "country_icon": "https://upload.wikimedia.org/wikipedia/commons/thumb/0/01/Flag_of_Sudan.svg/23px-Flag_of_Sudan.svg.png",
        "country": "Sudan",
        "is_valid": false
    },
    {
        "latitude": "21.121",
        "longitude": "159.461",
        "geo": "21.12, 159.46a",
        "city": "Avarua",
        "province_icon": "https://upload.wikimedia.org/wikipedia/commons/thumb/3/35/Flag_of_the_Cook_Islands.svg/23px-Flag_of_the_Cook_Islands.svg.png",
        "province": "Cook Islands",
        "country_icon": "https://upload.wikimedia.org/wikipedia/commons/thumb/3/3e/Flag_of_New_Zealand.svg/23px-Flag_of_New_Zealand.svg.png",
        "country": "New Zealand",
        "is_valid": false
    },
    {
        "latitude": "30.151",
        "longitude": "97.451",
        "geo": "30.15, 97.45a",
        "city": "Austin",
        "province_icon": "https://upload.wikimedia.org/wikipedia/commons/thumb/f/f7/Flag_of_Texas.svg/23px-Flag_of_Texas.svg.png",
        "province": "Texas",
        "country_icon": "https://upload.wikimedia.org/wikipedia/en/thumb/a/a4/Flag_of_the_United_States.svg/23px-Flag_of_the_United_States.svg.png",
        "country": "United States",
        "is_valid": false
    },
    {
        "latitude": "17.411",
        "longitude": "83.131",
        "geo": "17.41, 83.13a",
        "city": "Visakhapatnam",
        "province_icon": "",
        "province": "Andhra Pradesh",
        "country_icon": "https://upload.wikimedia.org/wikipedia/en/thumb/4/41/Flag_of_India.svg/23px-Flag_of_India.svg.png",
        "country": "India",
        "is_valid": false
    },
    {
        "latitude": "45.521",
        "longitude": "67.291",
        "geo": "45.52, 67.29a",
        "city": "Comodoro Rivadavia",
        "province_icon": "https://upload.wikimedia.org/wikipedia/commons/thumb/8/88/Bandera_de_la_Provincia_del_Chubut.svg/23px-Bandera_de_la_Provincia_del_Chubut.svg.png",
        "province": "Chubut",
        "country_icon": "https://upload.wikimedia.org/wikipedia/commons/thumb/1/1a/Flag_of_Argentina.svg/23px-Flag_of_Argentina.svg.png",
        "country": "Argentina",
        "is_valid": false
    },
    {
        "latitude": "31.151",
        "longitude": "32.171",
        "geo": "31.15, 32.17a",
        "city": "Port Said",
        "province_icon": "",
        "province": "",
        "country_icon": "https://upload.wikimedia.org/wikipedia/commons/thumb/f/fe/Flag_of_Egypt.svg/23px-Flag_of_Egypt.svg.png",
        "country": "Egypt",
        "is_valid": false
    },
    {
        "latitude": "36.461",
        "longitude": "3.131",
        "geo": "36.46, 3.13a",
        "city": "Algiers",
        "province_icon": "",
        "province": "",
        "country_icon": "https://upload.wikimedia.org/wikipedia/commons/thumb/7/77/Flag_of_Algeria.svg/23px-Flag_of_Algeria.svg.png",
        "country": "Algeria",
        "is_valid": false
    },
    {
        "latitude": "51.031",
        "longitude": "114.041",
        "geo": "51.03, 114.04a",
        "city": "Calgary",
        "province_icon": "https://upload.wikimedia.org/wikipedia/commons/thumb/f/f5/Flag_of_Alberta.svg/23px-Flag_of_Alberta.svg.png",
        "province": "Alberta",
        "country_icon": "https://upload.wikimedia.org/wikipedia/en/thumb/c/cf/Flag_of_Canada.svg/23px-Flag_of_Canada.svg.png",
        "country": "Canada",
        "is_valid": false
    },
    {
        "latitude": "42.141",
        "longitude": "43.581",
        "geo": "42.14, 43.58a",
        "city": "Tskhinvali",
        "province_icon": "https://upload.wikimedia.org/wikipedia/commons/thumb/1/12/Flag_of_South_Ossetia.svg/23px-Flag_of_South_Ossetia.svg.png",
        "province": "South Ossetia",
        "country_icon": "https://upload.wikimedia.org/wikipedia/commons/thumb/0/0f/Flag_of_Georgia.svg/23px-Flag_of_Georgia.svg.png",
        "country": "Georgia",
        "is_valid": false
    },
    {
        "latitude": "51.231",
        "longitude": "2.221",
        "geo": "51.23, 2.22a",
        "city": "Bath",
        "province_icon": "https://upload.wikimedia.org/wikipedia/en/thumb/b/be/Flag_of_England.svg/23px-Flag_of_England.svg.png",
        "province": "England",
        "country_icon": "https://upload.wikimedia.org/wikipedia/en/thumb/a/ae/Flag_of_the_United_Kingdom.svg/23px-Flag_of_the_United_Kingdom.svg.png",
        "country": "United Kingdom",
        "is_valid": false
    },
    {
        "latitude": "50.571",
        "longitude": "6.581",
        "geo": "50.57, 6.58a",
        "city": "Cologne",
        "province_icon": "https://upload.wikimedia.org/wikipedia/commons/thumb/8/84/Flag_of_North_Rhine-Westphalia.svg/23px-Flag_of_North_Rhine-Westphalia.svg.png",
        "province": "North Rhine-Westphalia",
        "country_icon": "https://upload.wikimedia.org/wikipedia/en/thumb/b/ba/Flag_of_Germany.svg/23px-Flag_of_Germany.svg.png",
        "country": "Germany",
        "is_valid": false
    },
    {
        "latitude": "28.281",
        "longitude": "16.151",
        "geo": "28.28, 16.15a",
        "city": "Santa Cruz de Tenerife",
        "province_icon": "https://upload.wikimedia.org/wikipedia/commons/thumb/b/b0/Flag_of_the_Canary_Islands.svg/23px-Flag_of_the_Canary_Islands.svg.png",
        "province": "Canary Islands",
        "country_icon": "https://upload.wikimedia.org/wikipedia/en/thumb/9/9a/Flag_of_Spain.svg/23px-Flag_of_Spain.svg.png",
        "country": "Spain",
        "is_valid": false
    },
    {
        "latitude": "17.511",
        "longitude": "25.521",
        "geo": "17.51, 25.52a",
        "city": "Livingstone",
        "province_icon": "",
        "province": "",
        "country_icon": "https://upload.wikimedia.org/wikipedia/commons/thumb/0/06/Flag_of_Zambia.svg/23px-Flag_of_Zambia.svg.png",
        "country": "Zambia",
        "is_valid": false
    },
    {
        "latitude": "18.511",
        "longitude": "41.561",
        "geo": "18.51, 41.56a",
        "city": "Governador Valadares",
        "province_icon": "https://upload.wikimedia.org/wikipedia/commons/thumb/f/f4/Bandeira_de_Minas_Gerais.svg/22px-Bandeira_de_Minas_Gerais.svg.png",
        "province": "Minas Gerais",
        "country_icon": "https://upload.wikimedia.org/wikipedia/en/thumb/0/05/Flag_of_Brazil.svg/22px-Flag_of_Brazil.svg.png",
        "country": "Brazil",
        "is_valid": false
    },
    {
        "latitude": "63.241",
        "longitude": "56.591",
        "geo": "63.24, 56.59a",
        "city": "Esperanza",
        "province_icon": "https://upload.wikimedia.org/wikipedia/commons/thumb/9/94/Bandera_de_la_Provincia_de_Tierra_del_Fuego.svg/22px-Bandera_de_la_Provincia_de_Tierra_del_Fuego.svg.png",
        "province": "Argentine Antarctica",
        "country_icon": "https://upload.wikimedia.org/wikipedia/commons/thumb/1/1a/Flag_of_Argentina.svg/23px-Flag_of_Argentina.svg.png",
        "country": "Argentina",
        "is_valid": false
    },
    {
        "latitude": "17.59",
        "longitude": "76.48",
        "geo": "17.59, 76.48",
        "city": "Kingston",
        "province_icon": "",
        "province": "",
        "country_icon": "https://upload.wikimedia.org/wikipedia/commons/thumb/0/0a/Flag_of_Jamaica.svg/23px-Flag_of_Jamaica.svg.png",
        "country": "Jamaica",
        "is_valid": false
    },
    {
        "latitude": "38.261",
        "longitude": "27.091",
        "geo": "38.26, 27.09a",
        "city": "İzmir",
        "province_icon": "",
        "province": "",
        "country_icon": "https://upload.wikimedia.org/wikipedia/commons/thumb/b/b4/Flag_of_Turkey.svg/23px-Flag_of_Turkey.svg.png",
        "country": "Turkey",
        "is_valid": false
    },
    {
        "latitude": "8.331",
        "longitude": "125.351",
        "geo": "8.33, 125.35a",
        "city": "Dili",
        "province_icon": "",
        "province": "",
        "country_icon": "https://upload.wikimedia.org/wikipedia/commons/thumb/2/26/Flag_of_East_Timor.svg/23px-Flag_of_East_Timor.svg.png",
        "country": "Timor-Leste",
        "is_valid": false
    },
    {
        "latitude": "7.141",
        "longitude": "35.531",
        "geo": "7.14, 35.53a",
        "city": "Campina Grande",
        "province_icon": "https://upload.wikimedia.org/wikipedia/commons/thumb/b/bb/Bandeira_da_Para%C3%ADba.svg/22px-Bandeira_da_Para%C3%ADba.svg.png",
        "province": "Paraíba",
        "country_icon": "https://upload.wikimedia.org/wikipedia/en/thumb/0/05/Flag_of_Brazil.svg/22px-Flag_of_Brazil.svg.png",
        "country": "Brazil",
        "is_valid": false
    },
    {
        "latitude": "22.541",
        "longitude": "47.031",
        "geo": "22.54, 47.03a",
        "city": "Campinas",
        "province_icon": "https://upload.wikimedia.org/wikipedia/commons/thumb/2/2b/Bandeira_do_estado_de_S%C3%A3o_Paulo.svg/23px-Bandeira_do_estado_de_S%C3%A3o_Paulo.svg.png",
        "province": "São Paulo",
        "country_icon": "https://upload.wikimedia.org/wikipedia/en/thumb/0/05/Flag_of_Brazil.svg/22px-Flag_of_Brazil.svg.png",
        "country": "Brazil",
        "is_valid": false
    },
    {
        "latitude": "35.40",
        "longitude": "105.58",
        "geo": "35.40, 105.58",
        "city": "Santa Fe",
        "province_icon": "https://upload.wikimedia.org/wikipedia/commons/thumb/c/c3/Flag_of_New_Mexico.svg/23px-Flag_of_New_Mexico.svg.png",
        "province": "New Mexico",
        "country_icon": "https://upload.wikimedia.org/wikipedia/en/thumb/a/a4/Flag_of_the_United_States.svg/23px-Flag_of_the_United_States.svg.png",
        "country": "United States",
        "is_valid": false
    },
    {
        "latitude": "12.471",
        "longitude": "45.141",
        "geo": "12.47, 45.14a",
        "city": "Mamoudzou",
        "province_icon": "",
        "province": "Mayotte",
        "country_icon": "https://upload.wikimedia.org/wikipedia/en/thumb/c/c3/Flag_of_France.svg/23px-Flag_of_France.svg.png",
        "country": "France",
        "is_valid": false
    },
    {
        "latitude": "33.361",
        "longitude": "73.021",
        "geo": "33.36, 73.02a",
        "city": "Rawalpindi",
        "province_icon": "",
        "province": "Punjab",
        "country_icon": "https://upload.wikimedia.org/wikipedia/commons/thumb/3/32/Flag_of_Pakistan.svg/23px-Flag_of_Pakistan.svg.png",
        "country": "Pakistan",
        "is_valid": false
    },
    {
        "latitude": "52.10",
        "longitude": "",
        "geo": "52.10, 4.29",
        "city": "Leiden",
        "province_icon": "https://upload.wikimedia.org/wikipedia/commons/thumb/6/63/Flag_Zuid-Holland.svg/23px-Flag_Zuid-Holland.svg.png",
        "province": "South Holland",
        "country_icon": "https://upload.wikimedia.org/wikipedia/commons/thumb/2/20/Flag_of_the_Netherlands.svg/23px-Flag_of_the_Netherlands.svg.png",
        "country": "Netherlands",
        "is_valid": false
    },
    {
        "latitude": "41.531",
        "longitude": "87.381",
        "geo": "41.53, 87.38a",
        "city": "Chicago",
        "province_icon": "https://upload.wikimedia.org/wikipedia/commons/thumb/0/01/Flag_of_Illinois.svg/23px-Flag_of_Illinois.svg.png",
        "province": "Illinois",
        "country_icon": "https://upload.wikimedia.org/wikipedia/en/thumb/a/a4/Flag_of_the_United_States.svg/23px-Flag_of_the_United_States.svg.png",
        "country": "United States",
        "is_valid": false
    },
    {
        "latitude": "48.081",
        "longitude": "11.341",
        "geo": "48.08, 11.34a",
        "city": "Munich",
        "province_icon": "https://upload.wikimedia.org/wikipedia/commons/thumb/2/20/Flag_of_Bavaria_%28lozengy%29.svg/23px-Flag_of_Bavaria_%28lozengy%29.svg.png",
        "province": "Bavaria",
        "country_icon": "https://upload.wikimedia.org/wikipedia/en/thumb/b/ba/Flag_of_Germany.svg/23px-Flag_of_Germany.svg.png",
        "country": "Germany",
        "is_valid": false
    },
    {
        "latitude": "46.361",
        "longitude": "112.021",
        "geo": "46.36, 112.02a",
        "city": "Helena",
        "province_icon": "https://upload.wikimedia.org/wikipedia/commons/thumb/c/cb/Flag_of_Montana.svg/23px-Flag_of_Montana.svg.png",
        "province": "Montana",
        "country_icon": "https://upload.wikimedia.org/wikipedia/en/thumb/a/a4/Flag_of_the_United_States.svg/23px-Flag_of_the_United_States.svg.png",
        "country": "United States",
        "is_valid": false
    },
    {
        "latitude": "6.221",
        "longitude": "2.261",
        "geo": "6.22, 2.26a",
        "city": "Cotonou",
        "province_icon": "",
        "province": "",
        "country_icon": "https://upload.wikimedia.org/wikipedia/commons/thumb/0/0a/Flag_of_Benin.svg/23px-Flag_of_Benin.svg.png",
        "country": "Benin",
        "is_valid": false
    },
    {
        "latitude": "8.291",
        "longitude": "13.141",
        "geo": "8.29, 13.14a",
        "city": "Freetown",
        "province_icon": "",
        "province": "",
        "country_icon": "https://upload.wikimedia.org/wikipedia/commons/thumb/1/17/Flag_of_Sierra_Leone.svg/23px-Flag_of_Sierra_Leone.svg.png",
        "country": "Sierra Leone",
        "is_valid": false
    },
    {
        "latitude": "30.151",
        "longitude": "120.101",
        "geo": "30.15, 120.10a",
        "city": "Hangzhou",
        "province_icon": "",
        "province": "Zhejiang",
        "country_icon": "https://upload.wikimedia.org/wikipedia/commons/thumb/f/fa/Flag_of_the_People%27s_Republic_of_China.svg/23px-Flag_of_the_People%27s_Republic_of_China.svg.png",
        "country": "People's Republic of China",
        "is_valid": false
    },
    {
        "latitude": "20.58",
        "longitude": "89.37",
        "geo": "20.58, 89.37",
        "city": "Mérida",
        "province_icon": "https://upload.wikimedia.org/wikipedia/commons/thumb/9/9b/Flag_of_Yucatan.svg/23px-Flag_of_Yucatan.svg.png",
        "province": "Yucatán",
        "country_icon": "https://upload.wikimedia.org/wikipedia/commons/thumb/f/fc/Flag_of_Mexico.svg/23px-Flag_of_Mexico.svg.png",
        "country": "Mexico",
        "is_valid": false
    },
    {
        "latitude": "35.141",
        "longitude": "80.511",
        "geo": "35.14, 80.51a",
        "city": "Charlotte",
        "province_icon": "https://upload.wikimedia.org/wikipedia/commons/thumb/b/bb/Flag_of_North_Carolina.svg/23px-Flag_of_North_Carolina.svg.png",
        "province": "North Carolina",
        "country_icon": "https://upload.wikimedia.org/wikipedia/en/thumb/a/a4/Flag_of_the_United_States.svg/23px-Flag_of_the_United_States.svg.png",
        "country": "United States",
        "is_valid": false
    },
    {
        "latitude": "43.191",
        "longitude": "2.001",
        "geo": "43.19, 2.00a",
        "city": "San Sebastián",
        "province_icon": "https://upload.wikimedia.org/wikipedia/commons/thumb/2/2d/Flag_of_the_Basque_Country.svg/23px-Flag_of_the_Basque_Country.svg.png",
        "province": "Basque Country",
        "country_icon": "https://upload.wikimedia.org/wikipedia/en/thumb/9/9a/Flag_of_Spain.svg/23px-Flag_of_Spain.svg.png",
        "country": "Spain",
        "is_valid": false
    },
    {
        "latitude": "13.271",
        "longitude": "16.351",
        "geo": "13.27, 16.35a",
        "city": "Banjul",
        "province_icon": "",
        "province": "",
        "country_icon": "https://upload.wikimedia.org/wikipedia/commons/thumb/7/77/Flag_of_The_Gambia.svg/23px-Flag_of_The_Gambia.svg.png",
        "country": "Gambia",
        "is_valid": false
    },
    {
        "latitude": "29.461",
        "longitude": "95.231",
        "geo": "29.46, 95.23a",
        "city": "Houston",
        "province_icon": "https://upload.wikimedia.org/wikipedia/commons/thumb/f/f7/Flag_of_Texas.svg/23px-Flag_of_Texas.svg.png",
        "province": "Texas",
        "country_icon": "https://upload.wikimedia.org/wikipedia/en/thumb/a/a4/Flag_of_the_United_States.svg/23px-Flag_of_the_United_States.svg.png",
        "country": "United States",
        "is_valid": false
    },
    {
        "latitude": "42.521",
        "longitude": "74.371",
        "geo": "42.52, 74.37a",
        "city": "Bishkek",
        "province_icon": "",
        "province": "",
        "country_icon": "https://upload.wikimedia.org/wikipedia/commons/thumb/c/c7/Flag_of_Kyrgyzstan.svg/23px-Flag_of_Kyrgyzstan.svg.png",
        "country": "Kyrgyzstan",
        "is_valid": false
    },
    {
        "latitude": "39.061",
        "longitude": "84.311",
        "geo": "39.06, 84.31a",
        "city": "Cincinnati",
        "province_icon": "https://upload.wikimedia.org/wikipedia/commons/thumb/4/4c/Flag_of_Ohio.svg/23px-Flag_of_Ohio.svg.png",
        "province": "Ohio",
        "country_icon": "https://upload.wikimedia.org/wikipedia/en/thumb/a/a4/Flag_of_the_United_States.svg/23px-Flag_of_the_United_States.svg.png",
        "country": "United States",
        "is_valid": false
    },
    {
        "latitude": "39.081",
        "longitude": "117.111",
        "geo": "39.08, 117.11a",
        "city": "Tianjin",
        "province_icon": "",
        "province": "",
        "country_icon": "https://upload.wikimedia.org/wikipedia/commons/thumb/f/fa/Flag_of_the_People%27s_Republic_of_China.svg/23px-Flag_of_the_People%27s_Republic_of_China.svg.png",
        "country": "People's Republic of China",
        "is_valid": false
    },
    {
        "latitude": "7.041",
        "longitude": "171.161",
        "geo": "7.04, 171.16a",
        "city": "Majuro",
        "province_icon": "",
        "province": "",
        "country_icon": "https://upload.wikimedia.org/wikipedia/commons/thumb/2/2e/Flag_of_the_Marshall_Islands.svg/23px-Flag_of_the_Marshall_Islands.svg.png",
        "country": "Marshall Islands",
        "is_valid": false
    },
    {
        "latitude": "29.221",
        "longitude": "47.591",
        "geo": "29.22, 47.59a",
        "city": "Kuwait City",
        "province_icon": "",
        "province": "",
        "country_icon": "https://upload.wikimedia.org/wikipedia/commons/thumb/a/aa/Flag_of_Kuwait.svg/23px-Flag_of_Kuwait.svg.png",
        "country": "Kuwait",
        "is_valid": false
    },
    {
        "latitude": "50.381",
        "longitude": "3.031",
        "geo": "50.38, 3.03a",
        "city": "Lille",
        "province_icon": "https://upload.wikimedia.org/wikipedia/commons/thumb/3/38/Generic_flag_of_Nord-Pas-de-Calais.svg/23px-Generic_flag_of_Nord-Pas-de-Calais.svg.png",
        "province": "Nord-Pas-de-Calais",
        "country_icon": "https://upload.wikimedia.org/wikipedia/en/thumb/c/c3/Flag_of_France.svg/23px-Flag_of_France.svg.png",
        "country": "France",
        "is_valid": false
    },
    {
        "latitude": "24.011",
        "longitude": "104.401",
        "geo": "24.01, 104.40a",
        "city": "Durango",
        "province_icon": "https://upload.wikimedia.org/wikipedia/commons/thumb/2/26/Flag_of_Durango.png/23px-Flag_of_Durango.png",
        "province": "Durango",
        "country_icon": "https://upload.wikimedia.org/wikipedia/commons/thumb/f/fc/Flag_of_Mexico.svg/23px-Flag_of_Mexico.svg.png",
        "country": "Mexico",
        "is_valid": false
    },
    {
        "latitude": "8.291",
        "longitude": "76.571",
        "geo": "8.29, 76.57a",
        "city": "Trivandrum",
        "province_icon": "",
        "province": "Kerala",
        "country_icon": "https://upload.wikimedia.org/wikipedia/en/thumb/4/41/Flag_of_India.svg/23px-Flag_of_India.svg.png",
        "country": "India",
        "is_valid": false
    },
    {
        "latitude": "16.471",
        "longitude": "3.011",
        "geo": "16.47, 3.01a",
        "city": "Timbuktu",
        "province_icon": "",
        "province": "",
        "country_icon": "https://upload.wikimedia.org/wikipedia/commons/thumb/9/92/Flag_of_Mali.svg/23px-Flag_of_Mali.svg.png",
        "country": "Mali",
        "is_valid": false
    },
    {
        "latitude": "39.091",
        "longitude": "127.271",
        "geo": "39.09, 127.27a",
        "city": "Wonsan",
        "province_icon": "",
        "province": "",
        "country_icon": "https://upload.wikimedia.org/wikipedia/commons/thumb/5/51/Flag_of_North_Korea.svg/23px-Flag_of_North_Korea.svg.png",
        "country": "North Korea",
        "is_valid": false
    },
    {
        "latitude": "6.481",
        "longitude": "39.171",
        "geo": "6.48, 39.17a",
        "city": "Dar es Salaam",
        "province_icon": "",
        "province": "",
        "country_icon": "https://upload.wikimedia.org/wikipedia/commons/thumb/3/38/Flag_of_Tanzania.svg/23px-Flag_of_Tanzania.svg.png",
        "country": "Tanzania",
        "is_valid": false
    },
    {
        "latitude": "36.431",
        "longitude": "4.251",
        "geo": "36.43, 4.25a",
        "city": "Málaga",
        "province_icon": "https://upload.wikimedia.org/wikipedia/commons/thumb/2/20/Flag_of_Andaluc%C3%ADa.svg/23px-Flag_of_Andaluc%C3%ADa.svg.png",
        "province": "Andalusia",
        "country_icon": "https://upload.wikimedia.org/wikipedia/en/thumb/9/9a/Flag_of_Spain.svg/23px-Flag_of_Spain.svg.png",
        "country": "Spain",
        "is_valid": false
    },
    {
        "latitude": "38.091",
        "longitude": "144.211",
        "geo": "38.09, 144.21a",
        "city": "Geelong",
        "province_icon": "https://upload.wikimedia.org/wikipedia/commons/thumb/0/08/Flag_of_Victoria_%28Australia%29.svg/23px-Flag_of_Victoria_%28Australia%29.svg.png",
        "province": "Victoria",
        "country_icon": "https://upload.wikimedia.org/wikipedia/en/thumb/b/b9/Flag_of_Australia.svg/23px-Flag_of_Australia.svg.png",
        "country": "Australia",
        "is_valid": false
    },
    {
        "latitude": "79.591",
        "longitude": "85.561",
        "geo": "79.59, 85.56a",
        "city": "Eureka",
        "province_icon": "https://upload.wikimedia.org/wikipedia/commons/thumb/9/90/Flag_of_Nunavut.svg/23px-Flag_of_Nunavut.svg.png",
        "province": "Nunavut",
        "country_icon": "https://upload.wikimedia.org/wikipedia/en/thumb/c/cf/Flag_of_Canada.svg/23px-Flag_of_Canada.svg.png",
        "country": "Canada",
        "is_valid": false
    },
    {
        "latitude": "43.121",
        "longitude": "71.321",
        "geo": "43.12, 71.32a",
        "city": "Concord",
        "province_icon": "https://upload.wikimedia.org/wikipedia/commons/thumb/2/28/Flag_of_New_Hampshire.svg/23px-Flag_of_New_Hampshire.svg.png",
        "province": "New Hampshire",
        "country_icon": "https://upload.wikimedia.org/wikipedia/en/thumb/a/a4/Flag_of_the_United_States.svg/23px-Flag_of_the_United_States.svg.png",
        "country": "United States",
        "is_valid": false
    },
    {
        "latitude": "42.021",
        "longitude": "13.251",
        "geo": "42.02, 13.25a",
        "city": "Avezzano",
        "province_icon": "https://upload.wikimedia.org/wikipedia/commons/thumb/4/45/Flag_of_Abruzzo.svg/23px-Flag_of_Abruzzo.svg.png",
        "province": "Abruzzo",
        "country_icon": "https://upload.wikimedia.org/wikipedia/en/thumb/0/03/Flag_of_Italy.svg/23px-Flag_of_Italy.svg.png",
        "country": "Italy",
        "is_valid": false
    },
    {
        "latitude": "10.241",
        "longitude": "75.301",
        "geo": "10.24, 75.30a",
        "city": "Cartagena",
        "province_icon": "",
        "province": "",
        "country_icon": "https://upload.wikimedia.org/wikipedia/commons/thumb/2/21/Flag_of_Colombia.svg/23px-Flag_of_Colombia.svg.png",
        "country": "Colombia",
        "is_valid": false
    },
    {
        "latitude": "57.151",
        "longitude": "2.111",
        "geo": "57.15, 2.11a",
        "city": "Aberdeen",
        "province_icon": "https://upload.wikimedia.org/wikipedia/commons/thumb/1/10/Flag_of_Scotland.svg/23px-Flag_of_Scotland.svg.png",
        "province": "Scotland",
        "country_icon": "https://upload.wikimedia.org/wikipedia/en/thumb/a/ae/Flag_of_the_United_Kingdom.svg/23px-Flag_of_the_United_Kingdom.svg.png",
        "country": "United Kingdom",
        "is_valid": false
    },
    {
        "latitude": "81.361",
        "longitude": "16.401",
        "geo": "81.36, 16.40a",
        "city": "Nord",
        "province_icon": "https://upload.wikimedia.org/wikipedia/commons/thumb/0/09/Flag_of_Greenland.svg/23px-Flag_of_Greenland.svg.png",
        "province": "Greenland",
        "country_icon": "https://upload.wikimedia.org/wikipedia/commons/thumb/9/9c/Flag_of_Denmark.svg/20px-Flag_of_Denmark.svg.png",
        "country": "Denmark",
        "is_valid": false
    },
    {
        "latitude": "69.271",
        "longitude": "133.021",
        "geo": "69.27, 133.02a",
        "city": "Tuktoyaktuk",
        "province_icon": "https://upload.wikimedia.org/wikipedia/commons/thumb/c/c1/Flag_of_the_Northwest_Territories.svg/23px-Flag_of_the_Northwest_Territories.svg.png",
        "province": "Northwest Territories",
        "country_icon": "https://upload.wikimedia.org/wikipedia/en/thumb/c/cf/Flag_of_Canada.svg/23px-Flag_of_Canada.svg.png",
        "country": "Canada",
        "is_valid": false
    },
    {
        "latitude": "37.471",
        "longitude": "122.251",
        "geo": "37.47, 122.25a",
        "city": "San Francisco",
        "province_icon": "https://upload.wikimedia.org/wikipedia/commons/thumb/0/01/Flag_of_California.svg/23px-Flag_of_California.svg.png",
        "province": "California",
        "country_icon": "https://upload.wikimedia.org/wikipedia/en/thumb/a/a4/Flag_of_the_United_States.svg/23px-Flag_of_the_United_States.svg.png",
        "country": "United States",
        "is_valid": false
    },
    {
        "latitude": "4.531",
        "longitude": "114.571",
        "geo": "4.53, 114.57a",
        "city": "Bandar Seri Begawan",
        "province_icon": "",
        "province": "",
        "country_icon": "https://upload.wikimedia.org/wikipedia/commons/thumb/9/9c/Flag_of_Brunei.svg/23px-Flag_of_Brunei.svg.png",
        "country": "Brunei",
        "is_valid": false
    },
    {
        "latitude": "32.18",
        "longitude": "64.47",
        "geo": "32.18, 64.47",
        "city": "Hamilton",
        "province_icon": "https://upload.wikimedia.org/wikipedia/commons/thumb/b/bf/Flag_of_Bermuda.svg/23px-Flag_of_Bermuda.svg.png",
        "province": "Bermuda",
        "country_icon": "https://upload.wikimedia.org/wikipedia/en/thumb/a/ae/Flag_of_the_United_Kingdom.svg/23px-Flag_of_the_United_Kingdom.svg.png",
        "country": "United Kingdom",
        "is_valid": false
    },
    {
        "latitude": "40.011",
        "longitude": "105.171",
        "geo": "40.01, 105.17a",
        "city": "Boulder",
        "province_icon": "https://upload.wikimedia.org/wikipedia/commons/thumb/4/46/Flag_of_Colorado.svg/23px-Flag_of_Colorado.svg.png",
        "province": "Colorado",
        "country_icon": "https://upload.wikimedia.org/wikipedia/en/thumb/a/a4/Flag_of_the_United_States.svg/23px-Flag_of_the_United_States.svg.png",
        "country": "United States",
        "is_valid": false
    },
    {
        "latitude": "0.151",
        "longitude": "78.351",
        "geo": "0.15, 78.35a",
        "city": "Quito",
        "province_icon": "",
        "province": "",
        "country_icon": "https://upload.wikimedia.org/wikipedia/commons/thumb/e/e8/Flag_of_Ecuador.svg/23px-Flag_of_Ecuador.svg.png",
        "country": "Ecuador",
        "is_valid": false
    },
    {
        "latitude": "48.26",
        "longitude": "123.22",
        "geo": "48.26, 123.22",
        "city": "Victoria",
        "province_icon": "https://upload.wikimedia.org/wikipedia/commons/thumb/b/b8/Flag_of_British_Columbia.svg/23px-Flag_of_British_Columbia.svg.png",
        "province": "British Columbia",
        "country_icon": "https://upload.wikimedia.org/wikipedia/en/thumb/c/cf/Flag_of_Canada.svg/23px-Flag_of_Canada.svg.png",
        "country": "Canada",
        "is_valid": false
    },
    {
        "latitude": "47.041",
        "longitude": "15.261",
        "geo": "47.04, 15.26a",
        "city": "Graz",
        "province_icon": "https://upload.wikimedia.org/wikipedia/commons/thumb/e/ed/Flag_of_Styria.svg/23px-Flag_of_Styria.svg.png",
        "province": "Styria",
        "country_icon": "https://upload.wikimedia.org/wikipedia/commons/thumb/4/41/Flag_of_Austria.svg/23px-Flag_of_Austria.svg.png",
        "country": "Austria",
        "is_valid": false
    },
    {
        "latitude": "5.191",
        "longitude": "4.021",
        "geo": "5.19, 4.02a",
        "city": "Abidjan",
        "province_icon": "",
        "province": "",
        "country_icon": "https://upload.wikimedia.org/wikipedia/commons/thumb/f/fe/Flag_of_C%C3%B4te_d%27Ivoire.svg/23px-Flag_of_C%C3%B4te_d%27Ivoire.svg.png",
        "country": "Ivory Coast",
        "is_valid": false
    },
    {
        "latitude": "68.471",
        "longitude": "16.321",
        "geo": "68.47, 16.32a",
        "city": "Harstad",
        "province_icon": "",
        "province": "Troms",
        "country_icon": "https://upload.wikimedia.org/wikipedia/commons/thumb/d/d9/Flag_of_Norway.svg/21px-Flag_of_Norway.svg.png",
        "country": "Norway",
        "is_valid": false
    },
    {
        "latitude": "53.481",
        "longitude": "1.331",
        "geo": "53.48, 1.33a",
        "city": "Leeds",
        "province_icon": "https://upload.wikimedia.org/wikipedia/en/thumb/b/be/Flag_of_England.svg/23px-Flag_of_England.svg.png",
        "province": "England",
        "country_icon": "https://upload.wikimedia.org/wikipedia/en/thumb/a/ae/Flag_of_the_United_Kingdom.svg/23px-Flag_of_the_United_Kingdom.svg.png",
        "country": "United Kingdom",
        "is_valid": false
    },
    {
        "latitude": "26.121",
        "longitude": "28.031",
        "geo": "26.12, 28.03a",
        "city": "Johannesburg",
        "province_icon": "",
        "province": "Gauteng",
        "country_icon": "https://upload.wikimedia.org/wikipedia/commons/thumb/a/af/Flag_of_South_Africa.svg/23px-Flag_of_South_Africa.svg.png",
        "country": "South Africa",
        "is_valid": false
    },
    {
        "latitude": "17.011",
        "longitude": "54.051",
        "geo": "17.01, 54.05a",
        "city": "Salalah",
        "province_icon": "",
        "province": "",
        "country_icon": "https://upload.wikimedia.org/wikipedia/commons/thumb/d/dd/Flag_of_Oman.svg/23px-Flag_of_Oman.svg.png",
        "country": "Oman",
        "is_valid": false
    },
    {
        "latitude": "25.451",
        "longitude": "28.111",
        "geo": "25.45, 28.11a",
        "city": "Pretoria",
        "province_icon": "",
        "province": "Gauteng",
        "country_icon": "https://upload.wikimedia.org/wikipedia/commons/thumb/a/af/Flag_of_South_Africa.svg/23px-Flag_of_South_Africa.svg.png",
        "country": "South Africa",
        "is_valid": false
    },
    {
        "latitude": "2.321",
        "longitude": "140.431",
        "geo": "2.32, 140.43a",
        "city": "Jayapura",
        "province_icon": "",
        "province": "Papua",
        "country_icon": "https://upload.wikimedia.org/wikipedia/commons/thumb/9/9f/Flag_of_Indonesia.svg/23px-Flag_of_Indonesia.svg.png",
        "country": "Indonesia",
        "is_valid": false
    },
    {
        "latitude": "60.101",
        "longitude": "24.561",
        "geo": "60.10, 24.56a",
        "city": "Helsinki",
        "province_icon": "",
        "province": "Uusimaa",
        "country_icon": "https://upload.wikimedia.org/wikipedia/commons/thumb/b/bc/Flag_of_Finland.svg/23px-Flag_of_Finland.svg.png",
        "country": "Finland",
        "is_valid": false
    },
    {
        "latitude": "35.111",
        "longitude": "136.541",
        "geo": "35.11, 136.54a",
        "city": "Nagoya",
        "province_icon": "",
        "province": "Aichi",
        "country_icon": "https://upload.wikimedia.org/wikipedia/en/thumb/9/9e/Flag_of_Japan.svg/23px-Flag_of_Japan.svg.png",
        "country": "Japan",
        "is_valid": false
    },
    {
        "latitude": "21.531",
        "longitude": "102.181",
        "geo": "21.53, 102.18a",
        "city": "Aguascalientes",
        "province_icon": "https://upload.wikimedia.org/wikipedia/commons/thumb/1/1b/Flag_of_Aguascalientes.svg/23px-Flag_of_Aguascalientes.svg.png",
        "province": "Aguascalientes",
        "country_icon": "https://upload.wikimedia.org/wikipedia/commons/thumb/f/fc/Flag_of_Mexico.svg/23px-Flag_of_Mexico.svg.png",
        "country": "Mexico",
        "is_valid": false
    },
    {
        "latitude": "22.151",
        "longitude": "97.521",
        "geo": "22.15, 97.52a",
        "city": "Tampico",
        "province_icon": "https://upload.wikimedia.org/wikipedia/commons/thumb/9/9f/Flag_of_Tamaulipas.svg/23px-Flag_of_Tamaulipas.svg.png",
        "province": "Tamaulipas",
        "country_icon": "https://upload.wikimedia.org/wikipedia/commons/thumb/f/fc/Flag_of_Mexico.svg/23px-Flag_of_Mexico.svg.png",
        "country": "Mexico",
        "is_valid": false
    },
    {
        "latitude": "78.131",
        "longitude": "15.391",
        "geo": "78.13, 15.39a",
        "city": "Longyearbyen",
        "province_icon": "https://upload.wikimedia.org/wikipedia/commons/thumb/d/d9/Flag_of_Norway.svg/21px-Flag_of_Norway.svg.png",
        "province": "Svalbard",
        "country_icon": "https://upload.wikimedia.org/wikipedia/commons/thumb/d/d9/Flag_of_Norway.svg/21px-Flag_of_Norway.svg.png",
        "country": "Norway",
        "is_valid": false
    },
    {
        "latitude": "52.061",
        "longitude": "5.071",
        "geo": "52.06, 5.07a",
        "city": "Utrecht",
        "province_icon": "https://upload.wikimedia.org/wikipedia/commons/thumb/4/4b/Utrecht_%28province%29-Flag.svg/23px-Utrecht_%28province%29-Flag.svg.png",
        "province": "Utrecht",
        "country_icon": "https://upload.wikimedia.org/wikipedia/commons/thumb/2/20/Flag_of_the_Netherlands.svg/23px-Flag_of_the_Netherlands.svg.png",
        "country": "Netherlands",
        "is_valid": false
    },
    {
        "latitude": "21.461",
        "longitude": "43.211",
        "geo": "21.46, 43.21a",
        "city": "Juiz de Fora",
        "province_icon": "https://upload.wikimedia.org/wikipedia/commons/thumb/f/f4/Bandeira_de_Minas_Gerais.svg/22px-Bandeira_de_Minas_Gerais.svg.png",
        "province": "Minas Gerais",
        "country_icon": "https://upload.wikimedia.org/wikipedia/en/thumb/0/05/Flag_of_Brazil.svg/22px-Flag_of_Brazil.svg.png",
        "country": "Brazil",
        "is_valid": false
    },
    {
        "latitude": "31.381",
        "longitude": "60.421",
        "geo": "31.38, 60.42a",
        "city": "Santa Fe",
        "province_icon": "https://upload.wikimedia.org/wikipedia/commons/thumb/8/84/Bandera_de_la_Provincia_de_Santa_Fe.svg/23px-Bandera_de_la_Provincia_de_Santa_Fe.svg.png",
        "province": "Santa Fe",
        "country_icon": "https://upload.wikimedia.org/wikipedia/commons/thumb/1/1a/Flag_of_Argentina.svg/23px-Flag_of_Argentina.svg.png",
        "country": "Argentina",
        "is_valid": false
    },
    {
        "latitude": "42.171",
        "longitude": "83.001",
        "geo": "42.17, 83.00a",
        "city": "Windsor",
        "province_icon": "https://upload.wikimedia.org/wikipedia/commons/thumb/8/88/Flag_of_Ontario.svg/23px-Flag_of_Ontario.svg.png",
        "province": "Ontario",
        "country_icon": "https://upload.wikimedia.org/wikipedia/en/thumb/c/cf/Flag_of_Canada.svg/23px-Flag_of_Canada.svg.png",
        "country": "Canada",
        "is_valid": false
    },
    {
        "latitude": "54.031",
        "longitude": "2.481",
        "geo": "54.03, 2.48a",
        "city": "Lancaster",
        "province_icon": "https://upload.wikimedia.org/wikipedia/en/thumb/b/be/Flag_of_England.svg/23px-Flag_of_England.svg.png",
        "province": "England",
        "country_icon": "https://upload.wikimedia.org/wikipedia/en/thumb/a/ae/Flag_of_the_United_Kingdom.svg/23px-Flag_of_the_United_Kingdom.svg.png",
        "country": "United Kingdom",
        "is_valid": false
    },
    {
        "latitude": "47.34",
        "longitude": "52.42",
        "geo": "47.34, 52.42",
        "city": "St. John's",
        "province_icon": "https://upload.wikimedia.org/wikipedia/commons/thumb/d/dd/Flag_of_Newfoundland_and_Labrador.svg/23px-Flag_of_Newfoundland_and_Labrador.svg.png",
        "province": "Newfoundland and Labrador",
        "country_icon": "https://upload.wikimedia.org/wikipedia/en/thumb/c/cf/Flag_of_Canada.svg/23px-Flag_of_Canada.svg.png",
        "country": "Canada",
        "is_valid": false
    },
    {
        "latitude": "52.571",
        "longitude": "1.081",
        "geo": "52.57, 1.08a",
        "city": "Nottingham",
        "province_icon": "https://upload.wikimedia.org/wikipedia/en/thumb/b/be/Flag_of_England.svg/23px-Flag_of_England.svg.png",
        "province": "England",
        "country_icon": "https://upload.wikimedia.org/wikipedia/en/thumb/a/ae/Flag_of_the_United_Kingdom.svg/23px-Flag_of_the_United_Kingdom.svg.png",
        "country": "United Kingdom",
        "is_valid": false
    },
    {
        "latitude": "10.171",
        "longitude": "61.281",
        "geo": "10.17, 61.28a",
        "city": "San Fernando",
        "province_icon": "",
        "province": "",
        "country_icon": "https://upload.wikimedia.org/wikipedia/commons/thumb/6/64/Flag_of_Trinidad_and_Tobago.svg/23px-Flag_of_Trinidad_and_Tobago.svg.png",
        "country": "Trinidad and Tobago",
        "is_valid": false
    },
    {
        "latitude": "65.351",
        "longitude": "22.091",
        "geo": "65.35, 22.09a",
        "city": "Luleå",
        "province_icon": "",
        "province": "Norrbotten",
        "country_icon": "https://upload.wikimedia.org/wikipedia/en/thumb/4/4c/Flag_of_Sweden.svg/23px-Flag_of_Sweden.svg.png",
        "country": "Sweden",
        "is_valid": false
    },
    {
        "latitude": "51.561",
        "longitude": "4.291",
        "geo": "51.56, 4.29a",
        "city": "Rotterdam",
        "province_icon": "https://upload.wikimedia.org/wikipedia/commons/thumb/6/63/Flag_Zuid-Holland.svg/23px-Flag_Zuid-Holland.svg.png",
        "province": "South Holland",
        "country_icon": "https://upload.wikimedia.org/wikipedia/commons/thumb/2/20/Flag_of_the_Netherlands.svg/23px-Flag_of_the_Netherlands.svg.png",
        "country": "Netherlands",
        "is_valid": false
    },
    {
        "latitude": "50.051",
        "longitude": "14.251",
        "geo": "50.05, 14.25a",
        "city": "Prague",
        "province_icon": "",
        "province": "",
        "country_icon": "https://upload.wikimedia.org/wikipedia/commons/thumb/c/cb/Flag_of_the_Czech_Republic.svg/23px-Flag_of_the_Czech_Republic.svg.png",
        "country": "Czech Republic",
        "is_valid": false
    },
    {
        "latitude": "3.251",
        "longitude": "76.311",
        "geo": "3.25, 76.31a",
        "city": "Santiago de Cali",
        "province_icon": "",
        "province": "",
        "country_icon": "https://upload.wikimedia.org/wikipedia/commons/thumb/2/21/Flag_of_Colombia.svg/23px-Flag_of_Colombia.svg.png",
        "country": "Colombia",
        "is_valid": false
    },
    {
        "latitude": "41.011",
        "longitude": "28.571",
        "geo": "41.01, 28.57a",
        "city": "Istanbul",
        "province_icon": "",
        "province": "",
        "country_icon": "https://upload.wikimedia.org/wikipedia/commons/thumb/b/b4/Flag_of_Turkey.svg/23px-Flag_of_Turkey.svg.png",
        "country": "Turkey",
        "is_valid": false
    },
    {
        "latitude": "9.331",
        "longitude": "44.41",
        "geo": "9.33, 44.4a",
        "city": "Hargeisa",
        "province_icon": "https://upload.wikimedia.org/wikipedia/commons/thumb/4/4d/Flag_of_Somaliland.svg/23px-Flag_of_Somaliland.svg.png",
        "province": "Somaliland",
        "country_icon": "https://upload.wikimedia.org/wikipedia/commons/thumb/a/a0/Flag_of_Somalia.svg/23px-Flag_of_Somalia.svg.png",
        "country": "Somalia",
        "is_valid": false
    },
    {
        "latitude": "15.391",
        "longitude": "32.291",
        "geo": "15.39, 32.29a",
        "city": "Omdurman",
        "province_icon": "",
        "province": "",
        "country_icon": "https://upload.wikimedia.org/wikipedia/commons/thumb/0/01/Flag_of_Sudan.svg/23px-Flag_of_Sudan.svg.png",
        "country": "Sudan",
        "is_valid": false
    },
    {
        "latitude": "14.171",
        "longitude": "170.421",
        "geo": "14.17, 170.42a",
        "city": "Pago Pago",
        "province_icon": "https://upload.wikimedia.org/wikipedia/commons/thumb/8/87/Flag_of_American_Samoa.svg/23px-Flag_of_American_Samoa.svg.png",
        "province": "American Samoa",
        "country_icon": "https://upload.wikimedia.org/wikipedia/en/thumb/a/a4/Flag_of_the_United_States.svg/23px-Flag_of_the_United_States.svg.png",
        "country": "United States",
        "is_valid": false
    },
    {
        "latitude": "16.281",
        "longitude": "107.351",
        "geo": "16.28, 107.35a",
        "city": "Huế",
        "province_icon": "",
        "province": "",
        "country_icon": "https://upload.wikimedia.org/wikipedia/commons/thumb/2/21/Flag_of_Vietnam.svg/23px-Flag_of_Vietnam.svg.png",
        "country": "Vietnam",
        "is_valid": false
    },
    {
        "latitude": "22.341",
        "longitude": "17.051",
        "geo": "22.34, 17.05a",
        "city": "Windhoek",
        "province_icon": "",
        "province": "",
        "country_icon": "https://upload.wikimedia.org/wikipedia/commons/thumb/0/00/Flag_of_Namibia.svg/23px-Flag_of_Namibia.svg.png",
        "country": "Namibia",
        "is_valid": false
    },
    {
        "latitude": "30.351",
        "longitude": "114.171",
        "geo": "30.35, 114.17a",
        "city": "Wuhan",
        "province_icon": "",
        "province": "Hubei",
        "country_icon": "https://upload.wikimedia.org/wikipedia/commons/thumb/f/fa/Flag_of_the_People%27s_Republic_of_China.svg/23px-Flag_of_the_People%27s_Republic_of_China.svg.png",
        "country": "People's Republic of China",
        "is_valid": false
    },
    {
        "latitude": "6.361",
        "longitude": "106.481",
        "geo": "6.36, 106.48a",
        "city": "Bogor",
        "province_icon": "",
        "province": "West Java",
        "country_icon": "https://upload.wikimedia.org/wikipedia/commons/thumb/9/9f/Flag_of_Indonesia.svg/23px-Flag_of_Indonesia.svg.png",
        "country": "Indonesia",
        "is_valid": false
    },
    {
        "latitude": "13.321",
        "longitude": "71.581",
        "geo": "13.32, 71.58a",
        "city": "Cusco",
        "province_icon": "",
        "province": "",
        "country_icon": "https://upload.wikimedia.org/wikipedia/commons/thumb/c/cf/Flag_of_Peru.svg/23px-Flag_of_Peru.svg.png",
        "country": "Peru",
        "is_valid": false
    },
    {
        "latitude": "56.501",
        "longitude": "53.111",
        "geo": "56.50, 53.11a",
        "city": "Izhevsk",
        "province_icon": "",
        "province": "Udmurt Republic",
        "country_icon": "https://upload.wikimedia.org/wikipedia/en/thumb/f/f3/Flag_of_Russia.svg/23px-Flag_of_Russia.svg.png",
        "country": "Russia",
        "is_valid": false
    },
    {
        "latitude": "13.291",
        "longitude": "144.451",
        "geo": "13.29, 144.45a",
        "city": "Hagåtña",
        "province_icon": "https://upload.wikimedia.org/wikipedia/commons/thumb/0/07/Flag_of_Guam.svg/23px-Flag_of_Guam.svg.png",
        "province": "Guam",
        "country_icon": "https://upload.wikimedia.org/wikipedia/en/thumb/a/a4/Flag_of_the_United_States.svg/23px-Flag_of_the_United_States.svg.png",
        "country": "United States",
        "is_valid": false
    },
    {
        "latitude": "77.511",
        "longitude": "166.401",
        "geo": "77.51, 166.40a",
        "city": "McMurdo",
        "province_icon": "",
        "province": "",
        "country_icon": "https://upload.wikimedia.org/wikipedia/en/thumb/a/a4/Flag_of_the_United_States.svg/23px-Flag_of_the_United_States.svg.png",
        "country": "United States",
        "is_valid": false
    },
    {
        "latitude": "10.301",
        "longitude": "66.551",
        "geo": "10.30, 66.55a",
        "city": "Caracas",
        "province_icon": "",
        "province": "",
        "country_icon": "https://upload.wikimedia.org/wikipedia/commons/thumb/0/06/Flag_of_Venezuela.svg/23px-Flag_of_Venezuela.svg.png",
        "country": "Venezuela",
        "is_valid": false
    },
    {
        "latitude": "39.281",
        "longitude": "31.141",
        "geo": "39.28, 31.14a",
        "city": "Flores Island",
        "province_icon": "https://upload.wikimedia.org/wikipedia/commons/thumb/6/6c/Flag_of_the_Azores.svg/23px-Flag_of_the_Azores.svg.png",
        "province": "Azores",
        "country_icon": "https://upload.wikimedia.org/wikipedia/commons/thumb/5/5c/Flag_of_Portugal.svg/23px-Flag_of_Portugal.svg.png",
        "country": "Portugal",
        "is_valid": false
    },
    {
        "latitude": "0.321",
        "longitude": "101.271",
        "geo": "0.32, 101.27a",
        "city": "Pekanbaru",
        "province_icon": "",
        "province": "Riau",
        "country_icon": "https://upload.wikimedia.org/wikipedia/commons/thumb/9/9f/Flag_of_Indonesia.svg/23px-Flag_of_Indonesia.svg.png",
        "country": "Indonesia",
        "is_valid": false
    },
    {
        "latitude": "5.321",
        "longitude": "47.291",
        "geo": "5.32, 47.29a",
        "city": "Imperatriz",
        "province_icon": "https://upload.wikimedia.org/wikipedia/commons/thumb/4/45/Bandeira_do_Maranh%C3%A3o.svg/23px-Bandeira_do_Maranh%C3%A3o.svg.png",
        "province": "Maranhão",
        "country_icon": "https://upload.wikimedia.org/wikipedia/en/thumb/0/05/Flag_of_Brazil.svg/22px-Flag_of_Brazil.svg.png",
        "country": "Brazil",
        "is_valid": false
    },
    {
        "latitude": "31.471",
        "longitude": "106.251",
        "geo": "31.47, 106.25a",
        "city": "El Paso",
        "province_icon": "https://upload.wikimedia.org/wikipedia/commons/thumb/f/f7/Flag_of_Texas.svg/23px-Flag_of_Texas.svg.png",
        "province": "Texas",
        "country_icon": "https://upload.wikimedia.org/wikipedia/en/thumb/a/a4/Flag_of_the_United_States.svg/23px-Flag_of_the_United_States.svg.png",
        "country": "United States",
        "is_valid": false
    },
    {
        "latitude": "48.231",
        "longitude": "89.151",
        "geo": "48.23, 89.15a",
        "city": "Thunder Bay",
        "province_icon": "https://upload.wikimedia.org/wikipedia/commons/thumb/8/88/Flag_of_Ontario.svg/23px-Flag_of_Ontario.svg.png",
        "province": "Ontario",
        "country_icon": "https://upload.wikimedia.org/wikipedia/en/thumb/c/cf/Flag_of_Canada.svg/23px-Flag_of_Canada.svg.png",
        "country": "Canada",
        "is_valid": false
    },
    {
        "latitude": "76.251",
        "longitude": "82.541",
        "geo": "76.25, 82.54a",
        "city": "Grise Fiord",
        "province_icon": "https://upload.wikimedia.org/wikipedia/commons/thumb/9/90/Flag_of_Nunavut.svg/23px-Flag_of_Nunavut.svg.png",
        "province": "Nunavut",
        "country_icon": "https://upload.wikimedia.org/wikipedia/en/thumb/c/cf/Flag_of_Canada.svg/23px-Flag_of_Canada.svg.png",
        "country": "Canada",
        "is_valid": false
    },
    {
        "latitude": "27.021",
        "longitude": "14.261",
        "geo": "27.02, 14.26a",
        "city": "Sabha",
        "province_icon": "",
        "province": "",
        "country_icon": "https://upload.wikimedia.org/wikipedia/commons/thumb/0/05/Flag_of_Libya.svg/23px-Flag_of_Libya.svg.png",
        "country": "Libya",
        "is_valid": false
    },
    {
        "latitude": "61.081",
        "longitude": "10.261",
        "geo": "61.08, 10.26a",
        "city": "Lillehammer",
        "province_icon": "",
        "province": "Oppland",
        "country_icon": "https://upload.wikimedia.org/wikipedia/commons/thumb/d/d9/Flag_of_Norway.svg/21px-Flag_of_Norway.svg.png",
        "country": "Norway",
        "is_valid": false
    },
    {
        "latitude": "41.161",
        "longitude": "173.171",
        "geo": "41.16, 173.17a",
        "city": "Nelson",
        "province_icon": "",
        "province": "",
        "country_icon": "https://upload.wikimedia.org/wikipedia/commons/thumb/3/3e/Flag_of_New_Zealand.svg/23px-Flag_of_New_Zealand.svg.png",
        "country": "New Zealand",
        "is_valid": false
    },
    {
        "latitude": "39.321",
        "longitude": "119.491",
        "geo": "39.32, 119.49a",
        "city": "Reno",
        "province_icon": "https://upload.wikimedia.org/wikipedia/commons/thumb/f/f1/Flag_of_Nevada.svg/23px-Flag_of_Nevada.svg.png",
        "province": "Nevada",
        "country_icon": "https://upload.wikimedia.org/wikipedia/en/thumb/a/a4/Flag_of_the_United_States.svg/23px-Flag_of_the_United_States.svg.png",
        "country": "United States",
        "is_valid": false
    },
    {
        "latitude": "40.241",
        "longitude": "49.531",
        "geo": "40.24, 49.53a",
        "city": "Baku",
        "province_icon": "",
        "province": "",
        "country_icon": "https://upload.wikimedia.org/wikipedia/commons/thumb/d/dd/Flag_of_Azerbaijan.svg/23px-Flag_of_Azerbaijan.svg.png",
        "country": "Azerbaijan",
        "is_valid": false
    },
    {
        "latitude": "52.191",
        "longitude": "104.181",
        "geo": "52.19, 104.18a",
        "city": "Irkutsk",
        "province_icon": "",
        "province": "Irkutsk Oblast",
        "country_icon": "https://upload.wikimedia.org/wikipedia/en/thumb/f/f3/Flag_of_Russia.svg/23px-Flag_of_Russia.svg.png",
        "country": "Russia",
        "is_valid": false
    },
    {
        "latitude": "13.101",
        "longitude": "74.131",
        "geo": "13.10, 74.13a",
        "city": "Ayacucho",
        "province_icon": "",
        "province": "",
        "country_icon": "https://upload.wikimedia.org/wikipedia/commons/thumb/c/cf/Flag_of_Peru.svg/23px-Flag_of_Peru.svg.png",
        "country": "Peru",
        "is_valid": false
    },
    {
        "latitude": "50.411",
        "longitude": "120.201",
        "geo": "50.41, 120.20a",
        "city": "Kamloops",
        "province_icon": "https://upload.wikimedia.org/wikipedia/commons/thumb/b/b8/Flag_of_British_Columbia.svg/23px-Flag_of_British_Columbia.svg.png",
        "province": "British Columbia",
        "country_icon": "https://upload.wikimedia.org/wikipedia/en/thumb/c/cf/Flag_of_Canada.svg/23px-Flag_of_Canada.svg.png",
        "country": "Canada",
        "is_valid": false
    }
]